$GPGGA,235128.07,3152.6560,N,11714.6592,E,1,5,2.133,169.763,M,-3.806,M,0,0*44
$GPRMC,235128.07,A,3152.6560,N,11714.6592,E,0.135,0.000,190414,0,W,A*35
$GPVTG,0.000,T,0.000,M,0.135,N,0.250,K,A*23
$GPGSA,A,3,15,21,18,29,24,,,,,,,,3.731,2.133,3.061*30
$GPGSV,3,1,9,29,10,214,52,14,3,243,26,15,59,23,41,18,40,314,31*4A
$GPGSV,3,2,9,21,57,289,40,26,24,46,38,24,59,155,38,22,7,299,0*79
$GPGSV,3,3,9,5,21,100,0*77
$GPGGA,235129.07,3152.6561,N,11714.6596,E,1,5,2.132,168.801,M,-3.806,M,0,0*4B
$GPRMC,235129.07,A,3152.6561,N,11714.6596,E,0.311,0.000,190414,0,W,A*35
$GPVTG,0.000,T,0.000,M,0.311,N,0.576,K,A*24
$GPGSA,A,3,15,21,18,29,24,,,,,,,,3.729,2.132,3.060*39
$GPGSV,3,1,9,29,10,214,52,14,3,243,27,15,59,23,42,18,40,314,30*49
$GPGSV,3,2,9,21,57,289,40,26,24,46,39,24,59,155,38,22,7,299,0*78
$GPGSV,3,3,9,5,21,100,0*77
$GPGGA,235130.07,3152.6560,N,11714.6596,E,1,5,2.132,168.595,M,-3.806,M,0,0*42
$GPRMC,235130.07,A,3152.6560,N,11714.6596,E,0.336,0.000,190414,0,W,A*39
$GPVTG,0.000,T,0.000,M,0.336,N,0.623,K,A*22
$GPGSA,A,3,15,21,18,29,24,,,,,,,,3.728,2.132,3.058*33
$GPGSV,3,1,9,29,10,214,52,14,3,243,27,15,59,23,43,18,40,314,30*48
$GPGSV,3,2,9,21,57,289,40,26,24,46,39,24,59,155,38,22,7,299,0*78
$GPGSV,3,3,9,5,21,100,0*77
$GPGGA,235131.07,3152.6558,N,11714.6596,E,1,5,2.131,166.891,M,-3.806,M,0,0*4C
$GPRMC,235131.07,A,3152.6558,N,11714.6596,E,0.079,0.000,190414,0,W,A*3B
$GPVTG,0.000,T,0.000,M,0.079,N,0.146,K,A*2E
$GPGSA,A,3,15,21,18,29,24,,,,,,,,3.727,2.131,3.057*30
$GPGSV,3,1,9,29,10,214,52,14,3,243,27,15,59,23,43,18,40,314,30*48
$GPGSV,3,2,9,21,57,289,41,22,7,299,3,24,59,155,38,26,24,46,39*7A
$GPGSV,3,3,9,5,21,100,0*77
$GPGGA,235132.07,3152.6552,N,11714.6590,E,1,5,2.131,167.269,M,-3.806,M,0,0*4F
$GPRMC,235132.07,A,3152.6552,N,11714.6590,E,3.496,225.645,190414,0,W,A*30
$GPVTG,225.645,T,225.645,M,3.496,N,6.474,K,A*2A
$GPGSA,A,3,15,21,18,29,24,,,,,,,,3.725,2.131,3.056*33
$GPGSV,3,1,9,29,10,214,51,14,3,243,27,15,59,23,43,18,40,314,30*4B
$GPGSV,3,2,9,21,57,289,41,26,24,46,39,24,59,155,38,22,7,299,0*79
$GPGSV,3,3,9,5,21,100,0*77
$GPGGA,235133.07,3152.6552,N,11714.6590,E,1,5,2.130,167.269,M,-3.806,M,0,0*4F
$GPRMC,235133.07,A,3152.6552,N,11714.6590,E,0.000,225.645,190414,0,W,A*39
$GPVTG,225.645,T,225.645,M,0.000,N,0.000,K,A*23
$GPGSA,A,3,15,21,18,29,24,,,,,,,,3.724,2.130,3.055*30
$GPGSV,3,1,9,29,10,214,51,14,3,243,27,15,59,23,44,18,40,314,30*4C
$GPGSV,3,2,9,21,57,289,40,26,24,46,39,24,59,155,39,22,7,299,0*79
$GPGSV,3,3,9,5,21,100,0*77
$GPGGA,235134.07,3152.6546,N,11714.6581,E,1,5,2.129,166.825,M,-3.806,M,0,0*46
$GPRMC,235134.07,A,3152.6546,N,11714.6581,E,4.608,262.049,190414,0,W,A*38
$GPVTG,262.049,T,262.049,M,4.608,N,8.534,K,A*23
$GPGSA,A,3,15,21,18,29,24,,,,,,,,3.722,2.129,3.053*38
$GPGSV,3,1,9,29,10,214,50,14,3,243,27,15,59,23,43,18,40,314,30*4A
$GPGSV,3,2,9,21,57,289,40,26,24,46,39,24,59,155,39,22,7,299,0*79
$GPGSV,3,3,9,5,21,100,0*77
$GPGGA,235135.07,3152.6546,N,11714.6581,E,1,5,2.129,166.825,M,-3.806,M,0,0*47
$GPRMC,235135.07,A,3152.6546,N,11714.6581,E,0.000,262.049,190414,0,W,A*33
$GPVTG,262.049,T,262.049,M,0.000,N,0.000,K,A*23
$GPGSA,A,3,15,21,18,29,24,,,,,,,,3.721,2.129,3.052*3A
$GPGSV,3,1,9,29,10,214,49,14,3,243,26,15,59,23,41,18,40,314,29*49
$GPGSV,3,2,9,21,58,289,39,26,24,46,40,24,59,155,40,22,7,299,0*78
$GPGSV,3,3,9,5,21,100,0*77
$GPGGA,235136.07,3152.6546,N,11714.6581,E,1,5,2.128,166.825,M,-3.806,M,0,0*45
$GPRMC,235136.07,A,3152.6546,N,11714.6581,E,0.000,262.049,190414,0,W,A*30
$GPVTG,262.049,T,262.049,M,0.000,N,0.000,K,A*23
$GPGSA,A,3,15,21,18,29,24,,,,,,,,3.720,2.128,3.051*39
$GPGSV,3,1,9,29,10,214,49,14,3,243,26,15,59,23,41,18,40,314,28*48
$GPGSV,3,2,9,21,58,289,37,26,24,46,40,24,59,155,40,22,7,299,0*76
$GPGSV,3,3,9,5,21,100,0*77
$GPGGA,235137.07,3152.6546,N,11714.6581,E,1,5,2.128,166.825,M,-3.806,M,0,0*44
$GPRMC,235137.07,A,3152.6546,N,11714.6581,E,0.000,262.049,190414,0,W,A*31
$GPVTG,262.049,T,262.049,M,0.000,N,0.000,K,A*23
$GPGSA,A,3,15,21,18,29,24,,,,,,,,3.718,2.128,3.050*33
$GPGSV,3,1,9,29,10,214,50,14,3,243,29,15,59,23,43,18,40,314,29*4C
$GPGSV,3,2,9,21,58,289,38,22,7,299,16,24,59,155,39,26,24,46,39*4E
$GPGSV,3,3,9,5,21,100,0*77
$GPGGA,235138.07,3152.6546,N,11714.6581,E,1,5,2.127,166.825,M,-3.806,M,0,0*44
$GPRMC,235138.07,A,3152.6546,N,11714.6581,E,0.000,262.049,190414,0,W,A*3E
$GPVTG,262.049,T,262.049,M,0.000,N,0.000,K,A*23
$GPGSA,A,3,15,21,18,29,24,,,,,,,,3.717,2.127,3.048*3A
$GPGSV,3,1,9,29,10,214,50,14,3,243,28,15,59,23,43,18,40,314,28*4C
$GPGSV,3,2,9,21,58,289,38,22,7,299,16,24,59,155,39,26,24,46,40*40
$GPGSV,3,3,9,5,21,100,0*77
$GPGGA,235139.07,3152.6546,N,11714.6581,E,1,5,2.126,166.825,M,-3.806,M,0,0*44
$GPRMC,235139.07,A,3152.6546,N,11714.6581,E,0.000,262.049,190414,0,W,A*3F
$GPVTG,262.049,T,262.049,M,0.000,N,0.000,K,A*23
$GPGSA,A,3,15,21,18,29,24,,,,,,,,3.716,2.126,3.047*35
$GPGSV,3,1,9,29,10,214,51,14,3,243,29,15,59,23,44,18,40,314,27*44
$GPGSV,3,2,9,21,58,289,39,22,7,299,18,24,59,155,39,26,24,46,40*4F
$GPGSV,3,3,9,5,21,100,0*77
$GPGGA,235140.07,3152.6546,N,11714.6581,E,1,5,2.126,166.825,M,-3.806,M,0,0*4A
$GPRMC,235140.07,A,3152.6546,N,11714.6581,E,0.000,262.049,190414,0,W,A*31
$GPVTG,262.049,T,262.049,M,0.000,N,0.000,K,A*23
$GPGSA,A,3,15,21,18,29,24,,,,,,,,3.714,2.126,3.046*36
$GPGSV,3,1,9,29,10,214,52,14,3,243,29,15,59,23,45,18,40,314,26*47
$GPGSV,3,2,9,21,58,289,40,22,7,299,20,24,59,155,39,26,24,46,40*4A
$GPGSV,3,3,9,5,21,100,0*77
$GPGGA,235141.07,3152.6546,N,11714.6581,E,1,5,2.125,166.825,M,-3.806,M,0,0*48
$GPRMC,235141.07,A,3152.6546,N,11714.6581,E,0.000,262.049,190414,0,W,A*30
$GPVTG,262.049,T,262.049,M,0.000,N,0.000,K,A*23
$GPGSA,A,3,15,21,18,29,24,,,,,,,,3.713,2.125,3.045*31
$GPGSV,3,1,9,29,10,214,52,14,3,243,29,15,59,23,45,18,40,314,25*44
$GPGSV,3,2,9,21,58,289,40,22,7,299,19,24,59,155,39,26,24,46,41*41
$GPGSV,3,3,9,5,21,100,0*77
$GPGGA,235142.07,3152.6546,N,11714.6581,E,1,5,2.125,166.825,M,-3.806,M,0,0*4B
$GPRMC,235142.07,A,3152.6546,N,11714.6581,E,0.000,262.049,190414,0,W,A*33
$GPVTG,262.049,T,262.049,M,0.000,N,0.000,K,A*23
$GPGSA,A,3,15,21,18,29,24,,,,,,,,3.712,2.125,3.043*36
$GPGSV,3,1,9,29,10,214,52,14,3,243,28,15,59,23,45,18,40,314,23*43
$GPGSV,3,2,9,21,58,289,40,22,7,299,19,24,59,155,39,26,24,46,41*41
$GPGSV,3,3,9,5,21,100,0*77
$GPGGA,235143.07,3152.6546,N,11714.6581,E,1,5,2.124,166.825,M,-3.806,M,0,0*4B
$GPRMC,235143.07,A,3152.6546,N,11714.6581,E,0.000,262.049,190414,0,W,A*32
$GPVTG,262.049,T,262.049,M,0.000,N,0.000,K,A*23
$GPGSA,A,3,15,21,18,29,24,,,,,,,,3.710,2.124,3.042*34
$GPGSV,3,1,9,29,10,214,52,14,3,243,28,15,59,23,45,18,40,314,22*42
$GPGSV,3,2,9,21,58,289,40,22,7,299,19,24,59,155,39,26,24,46,41*41
$GPGSV,3,3,9,5,21,100,0*77
$GPGGA,235144.07,3152.6546,N,11714.6581,E,1,5,2.124,166.825,M,-3.806,M,0,0*4C
$GPRMC,235144.07,A,3152.6546,N,11714.6581,E,0.000,262.049,190414,0,W,A*35
$GPVTG,262.049,T,262.049,M,0.000,N,0.000,K,A*23
$GPGSA,A,3,15,21,18,29,24,,,,,,,,3.709,2.124,3.041*3F
$GPGSV,3,1,9,29,10,214,52,14,3,243,26,15,59,23,45,18,40,314,21*4F
$GPGSV,3,2,9,21,58,289,41,22,7,299,18,24,59,155,39,26,24,46,42*42
$GPGSV,3,3,9,5,21,100,0*77
$GPGGA,235145.07,3152.6546,N,11714.6581,E,1,5,2.123,166.825,M,-3.806,M,0,0*4A
$GPRMC,235145.07,A,3152.6546,N,11714.6581,E,0.000,262.049,190414,0,W,A*34
$GPVTG,262.049,T,262.049,M,0.000,N,0.000,K,A*23
$GPGSA,A,3,15,21,18,29,24,,,,,,,,3.708,2.123,3.040*38
$GPGSV,3,1,9,29,10,214,52,14,3,243,24,15,59,23,45,18,40,314,21*4D
$GPGSV,3,2,9,21,58,288,41,22,7,299,19,24,59,155,40,26,24,46,42*4C
$GPGSV,3,3,9,5,21,100,0*77
$GPGGA,235146.07,3152.6546,N,11714.6581,E,1,5,2.122,166.825,M,-3.806,M,0,0*48
$GPRMC,235146.07,A,3152.6546,N,11714.6581,E,0.000,262.049,190414,0,W,A*37
$GPVTG,262.049,T,262.049,M,0.000,N,0.000,K,A*23
$GPGSA,A,3,15,21,18,29,24,,,,,,,,3.706,2.122,3.038*38
$GPGSV,3,1,9,29,10,214,52,14,3,243,25,15,59,23,44,18,40,314,21*4D
$GPGSV,3,2,9,21,58,288,41,22,7,299,22,24,59,155,40,26,24,46,42*44
$GPGSV,3,3,9,5,21,100,0*77
$GPGGA,235147.07,3152.6546,N,11714.6581,E,1,5,2.122,166.825,M,-3.806,M,0,0*49
$GPRMC,235147.07,A,3152.6546,N,11714.6581,E,0.000,262.049,190414,0,W,A*36
$GPVTG,262.049,T,262.049,M,0.000,N,0.000,K,A*23
$GPGSA,A,3,15,21,18,29,24,,,,,,,,3.705,2.122,3.037*34
$GPGSV,3,1,9,29,10,214,52,14,3,243,26,15,59,23,45,18,40,314,22*4C
$GPGSV,3,2,9,21,58,288,41,22,7,299,24,24,59,155,40,26,24,46,42*42
$GPGSV,3,3,9,5,21,100,0*77
$GPGGA,235148.07,3152.6546,N,11714.6581,E,1,5,2.121,166.825,M,-3.806,M,0,0*45
$GPRMC,235148.07,A,3152.6546,N,11714.6581,E,0.000,262.049,190414,0,W,A*39
$GPVTG,262.049,T,262.049,M,0.000,N,0.000,K,A*23
$GPGSA,A,3,15,21,18,29,24,,,,,,,,3.704,2.121,3.036*37
$GPGSV,3,1,9,29,10,214,52,14,3,243,27,15,59,23,45,18,40,314,23*4C
$GPGSV,3,2,9,21,58,288,41,22,7,299,24,24,59,155,41,26,24,46,42*43
$GPGSV,3,3,9,5,21,100,0*77
$GPGGA,235149.07,3152.6546,N,11714.6581,E,1,5,2.121,166.825,M,-3.806,M,0,0*44
$GPRMC,235149.07,A,3152.6546,N,11714.6581,E,0.000,262.049,190414,0,W,A*38
$GPVTG,262.049,T,262.049,M,0.000,N,0.000,K,A*23
$GPGSA,A,3,15,21,18,29,24,,,,,,,,3.702,2.121,3.035*32
$GPGSV,3,1,9,29,10,214,52,14,3,243,28,15,59,23,44,18,40,314,24*45
$GPGSV,3,2,9,21,58,288,41,22,7,299,25,24,59,155,41,26,24,46,41*41
$GPGSV,3,3,9,5,21,100,0*77
$GPGGA,235150.07,3152.6546,N,11714.6581,E,1,5,2.120,166.825,M,-3.806,M,0,0*4D
$GPRMC,235150.07,A,3152.6546,N,11714.6581,E,0.000,262.049,190414,0,W,A*30
$GPVTG,262.049,T,262.049,M,0.000,N,0.000,K,A*23
$GPGSA,A,3,15,21,18,29,24,,,,,,,,3.701,2.120,3.033*36
$GPGSV,3,1,9,29,10,214,52,14,3,243,29,15,59,23,44,18,40,314,24*44
$GPGSV,3,2,9,21,58,288,41,22,7,299,24,24,59,155,42,26,24,46,40*42
$GPGSV,3,3,9,5,21,100,0*77
$GPGGA,235151.07,3152.6546,N,11714.6581,E,1,5,2.120,166.825,M,-3.806,M,0,0*4C
$GPRMC,235151.07,A,3152.6546,N,11714.6581,E,0.000,262.049,190414,0,W,A*31
$GPVTG,262.049,T,262.049,M,0.000,N,0.000,K,A*23
$GPGSA,A,3,15,21,18,29,24,,,,,,,,3.700,2.120,3.032*36
$GPGSV,3,1,9,29,10,214,52,14,3,243,28,15,59,23,44,18,40,314,24*45
$GPGSV,3,2,9,21,58,288,41,22,7,299,23,24,59,155,42,26,24,46,40*45
$GPGSV,3,3,9,5,21,100,0*77
$GPGGA,235152.07,3152.6546,N,11714.6581,E,1,5,2.119,166.825,M,-3.806,M,0,0*45
$GPRMC,235152.07,A,3152.6546,N,11714.6581,E,0.000,262.049,190414,0,W,A*32
$GPVTG,262.049,T,262.049,M,0.000,N,0.000,K,A*23
$GPGSA,A,3,15,21,29,24,18,,,,,,,,3.698,2.119,3.031*3F
$GPGSV,3,1,9,29,10,214,52,14,3,243,27,15,59,23,44,18,40,314,23*4D
$GPGSV,3,2,9,21,58,288,40,22,7,299,21,24,60,155,42,26,24,46,39*42
$GPGSV,3,3,9,5,21,100,0*77
$GPGGA,235153.07,3152.6546,N,11714.6581,E,1,5,2.118,166.825,M,-3.806,M,0,0*45
$GPRMC,235153.07,A,3152.6546,N,11714.6581,E,0.000,262.049,190414,0,W,A*33
$GPVTG,262.049,T,262.049,M,0.000,N,0.000,K,A*23
$GPGSA,A,3,15,21,29,24,18,,,,,,,,3.697,2.118,3.030*30
$GPGSV,3,1,9,29,10,214,51,14,3,243,26,15,59,23,43,18,40,314,22*49
$GPGSV,3,2,9,21,58,288,41,22,7,299,20,24,60,155,42,26,24,46,38*43
$GPGSV,3,3,9,5,21,100,0*77
$GPGGA,235154.07,3152.6546,N,11714.6581,E,1,5,2.118,166.825,M,-3.806,M,0,0*42
$GPRMC,235154.07,A,3152.6546,N,11714.6581,E,0.000,262.049,190414,0,W,A*34
$GPVTG,262.049,T,262.049,M,0.000,N,0.000,K,A*23
$GPGSA,A,3,15,21,18,29,24,,,,,,,,3.695,2.118,3.028*3B
$GPGSV,3,1,9,29,10,214,51,14,3,243,25,15,59,23,43,18,40,314,22*4A
$GPGSV,3,2,9,21,58,288,40,22,7,299,19,24,60,155,42,26,24,46,38*48
$GPGSV,3,3,9,5,21,100,0*77
$GPGGA,235155.07,3152.6546,N,11714.6581,E,1,6,1.248,166.825,M,-3.806,M,0,0*45
$GPRMC,235155.07,A,3152.6546,N,11714.6581,E,0.000,262.049,190414,0,W,A*35
$GPVTG,262.049,T,262.049,M,0.000,N,0.000,K,A*23
$GPGSA,A,3,15,26,21,18,29,24,,,,,,,2.075,1.248,1.657*3F
$GPGSV,3,1,9,29,10,214,51,14,3,243,24,15,59,23,43,18,40,314,22*4B
$GPGSV,3,2,9,21,58,288,40,22,7,299,19,24,60,155,42,26,24,46,38*48
$GPGSV,3,3,9,5,21,100,0*77
$GPGGA,235156.07,3152.6546,N,11714.6581,E,1,6,1.248,166.825,M,-3.806,M,0,0*46
$GPRMC,235156.07,A,3152.6546,N,11714.6581,E,0.000,262.049,190414,0,W,A*36
$GPVTG,262.049,T,262.049,M,0.000,N,0.000,K,A*23
$GPGSA,A,3,15,26,21,18,29,24,,,,,,,2.074,1.248,1.657*3E
$GPGSV,3,1,9,29,10,214,51,14,3,243,23,15,59,24,43,18,40,314,21*48
$GPGSV,3,2,9,21,58,288,41,22,7,299,18,24,60,155,42,26,24,46,38*48
$GPGSV,3,3,9,5,21,100,0*77
$GPGGA,235157.07,3152.6546,N,11714.6581,E,1,6,1.248,166.825,M,-3.806,M,0,0*47
$GPRMC,235157.07,A,3152.6546,N,11714.6581,E,0.000,262.049,190414,0,W,A*37
$GPVTG,262.049,T,262.049,M,0.000,N,0.000,K,A*23
$GPGSA,A,3,15,26,21,18,29,24,,,,,,,2.074,1.248,1.657*3E
$GPGSV,3,1,9,29,10,214,51,14,3,243,22,15,59,24,43,18,40,314,21*49
$GPGSV,3,2,9,21,58,288,40,22,7,299,18,24,60,155,42,26,24,46,38*49
$GPGSV,3,3,9,5,21,100,0*77
$GPGGA,235158.07,3152.6546,N,11714.6581,E,1,6,1.248,166.825,M,-3.806,M,0,0*48
$GPRMC,235158.07,A,3152.6546,N,11714.6581,E,0.000,262.049,190414,0,W,A*38
$GPVTG,262.049,T,262.049,M,0.000,N,0.000,K,A*23
$GPGSA,A,3,15,26,21,18,29,24,,,,,,,2.074,1.248,1.657*3E
$GPGSV,3,1,9,29,10,214,51,14,3,243,21,15,59,24,43,18,40,314,22*49
$GPGSV,3,2,9,21,58,288,40,22,7,299,18,24,60,155,42,26,24,46,38*49
$GPGSV,3,3,9,5,21,100,0*77
$GPGGA,235159.07,3152.6546,N,11714.6581,E,1,6,1.248,166.825,M,-3.806,M,0,0*49
$GPRMC,235159.07,A,3152.6546,N,11714.6581,E,0.000,262.049,190414,0,W,A*39
$GPVTG,262.049,T,262.049,M,0.000,N,0.000,K,A*23
$GPGSA,A,3,15,26,21,18,29,24,,,,,,,2.074,1.248,1.656*3F
$GPGSV,3,1,9,29,10,214,51,14,3,243,20,15,59,24,44,18,40,314,22*4F
$GPGSV,3,2,9,21,58,288,40,22,7,299,18,24,60,155,42,26,24,46,38*49
$GPGSV,3,3,9,5,21,100,0*77
$GPGGA,235200.07,3152.6546,N,11714.6581,E,1,6,1.248,166.825,M,-3.806,M,0,0*46
$GPRMC,235200.07,A,3152.6546,N,11714.6581,E,0.000,262.049,190414,0,W,A*36
$GPVTG,262.049,T,262.049,M,0.000,N,0.000,K,A*23
$GPGSA,A,3,15,26,21,18,29,24,,,,,,,2.074,1.248,1.656*3F
$GPGSV,3,1,9,29,10,214,51,14,3,243,18,15,59,24,43,18,40,314,22*43
$GPGSV,3,2,9,21,58,288,39,22,7,299,18,24,60,155,41,26,24,46,38*44
$GPGSV,3,3,9,5,21,100,0*77
$GPGGA,235201.07,3152.6546,N,11714.6581,E,1,6,1.248,166.825,M,-3.806,M,0,0*47
$GPRMC,235201.07,A,3152.6546,N,11714.6581,E,0.000,262.049,190414,0,W,A*37
$GPVTG,262.049,T,262.049,M,0.000,N,0.000,K,A*23
$GPGSA,A,3,15,26,21,18,29,24,,,,,,,2.073,1.248,1.656*38
$GPGSV,3,1,9,29,10,214,51,14,3,243,18,15,59,24,42,18,40,314,21*41
$GPGSV,3,2,9,21,58,288,39,22,7,299,18,24,60,155,40,26,24,46,37*4A
$GPGSV,3,3,9,5,21,100,0*77
$GPGGA,235202.07,3152.6546,N,11714.6581,E,1,6,1.248,166.825,M,-3.806,M,0,0*44
$GPRMC,235202.07,A,3152.6546,N,11714.6581,E,0.000,262.049,190414,0,W,A*34
$GPVTG,262.049,T,262.049,M,0.000,N,0.000,K,A*23
$GPGSA,A,3,15,26,21,18,29,24,,,,,,,2.073,1.248,1.655*3B
$GPGSV,3,1,9,29,10,214,51,14,3,243,19,15,59,24,42,18,40,314,20*41
$GPGSV,3,2,9,21,58,288,39,22,7,299,18,24,60,155,40,26,24,46,36*4B
$GPGSV,3,3,9,5,21,100,0*77
$GPGGA,235203.07,3152.6546,N,11714.6581,E,1,6,1.248,166.825,M,-3.806,M,0,0*45
$GPRMC,235203.07,A,3152.6546,N,11714.6581,E,0.000,262.049,190414,0,W,A*35
$GPVTG,262.049,T,262.049,M,0.000,N,0.000,K,A*23
$GPGSA,A,3,15,26,21,18,29,24,,,,,,,2.073,1.248,1.655*3B
$GPGSV,3,1,9,29,10,214,51,14,3,243,20,15,59,24,42,18,40,314,20*4B
$GPGSV,3,2,9,21,58,288,39,22,7,299,18,24,60,155,40,26,24,46,35*48
$GPGSV,3,3,9,5,21,100,0*77
$GPGGA,235204.07,3152.6546,N,11714.6581,E,1,6,1.248,166.825,M,-3.806,M,0,0*42
$GPRMC,235204.07,A,3152.6546,N,11714.6581,E,0.000,262.049,190414,0,W,A*32
$GPVTG,262.049,T,262.049,M,0.000,N,0.000,K,A*23
$GPGSA,A,3,15,26,21,18,29,24,,,,,,,2.073,1.248,1.655*3B
$GPGSV,3,1,9,29,10,214,51,14,3,243,21,15,59,24,43,18,40,314,19*41
$GPGSV,3,2,9,21,58,288,39,22,7,299,18,24,60,155,40,26,24,46,34*49
$GPGSV,3,3,9,5,21,100,0*77
$GPGGA,235205.07,3152.6546,N,11714.6581,E,1,6,1.248,166.825,M,-3.806,M,0,0*43
$GPRMC,235205.07,A,3152.6546,N,11714.6581,E,0.000,262.049,190414,0,W,A*33
$GPVTG,262.049,T,262.049,M,0.000,N,0.000,K,A*23
$GPGSA,A,3,15,26,21,18,29,24,,,,,,,2.073,1.248,1.655*3B
$GPGSV,3,1,9,29,10,214,51,14,3,243,21,15,59,24,43,18,40,314,18*40
$GPGSV,3,2,9,21,58,288,39,22,7,299,17,24,60,155,40,26,24,46,34*46
$GPGSV,3,3,9,5,21,100,0*77
$GPGGA,235206.07,3152.6546,N,11714.6581,E,1,6,1.248,166.825,M,-3.806,M,0,0*40
$GPRMC,235206.07,A,3152.6546,N,11714.6581,E,0.000,262.049,190414,0,W,A*30
$GPVTG,262.049,T,262.049,M,0.000,N,0.000,K,A*23
$GPGSA,A,3,15,26,21,18,29,24,,,,,,,2.072,1.248,1.654*3B
$GPGSV,3,1,9,29,10,214,51,14,3,243,20,15,59,24,43,18,40,314,19*40
$GPGSV,3,2,9,21,58,288,40,22,7,299,16,24,60,155,41,26,24,46,33*4F
$GPGSV,3,3,9,5,21,100,0*77
$GPGGA,235207.07,3152.6546,N,11714.6581,E,1,6,1.248,166.825,M,-3.806,M,0,0*41
$GPRMC,235207.07,A,3152.6546,N,11714.6581,E,0.000,262.049,190414,0,W,A*31
$GPVTG,262.049,T,262.049,M,0.000,N,0.000,K,A*23
$GPGSA,A,3,15,26,21,29,24,18,,,,,,,2.072,1.248,1.654*3B
$GPGSV,3,1,9,29,10,214,52,14,3,243,19,15,59,24,43,18,40,314,19*49
$GPGSV,3,2,9,21,58,288,40,22,7,299,10,24,60,155,40,26,24,46,33*48
$GPGSV,3,3,9,5,21,100,0*77
$GPGGA,235208.07,3152.6546,N,11714.6581,E,1,6,1.248,166.825,M,-3.806,M,0,0*4E
$GPRMC,235208.07,A,3152.6546,N,11714.6581,E,0.000,262.049,190414,0,W,A*3E
$GPVTG,262.049,T,262.049,M,0.000,N,0.000,K,A*23
$GPGSA,A,3,15,26,21,18,29,24,,,,,,,2.072,1.248,1.654*3B
$GPGSV,3,1,9,29,10,214,51,14,3,243,18,15,59,24,43,18,40,314,20*41
$GPGSV,3,2,9,21,58,288,40,22,7,299,9,24,60,155,40,26,24,46,33*70
$GPGSV,3,3,9,5,21,100,0*77
$GPGGA,235209.07,3152.6546,N,11714.6581,E,1,6,1.249,166.825,M,-3.806,M,0,0*4E
$GPRMC,235209.07,A,3152.6546,N,11714.6581,E,0.000,262.049,190414,0,W,A*3F
$GPVTG,262.049,T,262.049,M,0.000,N,0.000,K,A*23
$GPGSA,A,3,15,26,21,29,24,18,,,,,,,2.072,1.249,1.653*3D
$GPGSV,3,1,9,29,10,214,51,14,3,243,18,15,59,24,43,18,40,314,20*41
$GPGSV,3,2,9,21,58,288,40,22,7,299,9,24,60,155,40,26,24,46,32*71
$GPGSV,3,3,9,5,20,100,0*76
$GPGGA,235210.07,3152.6546,N,11714.6581,E,1,6,1.249,166.825,M,-3.806,M,0,0*46
$GPRMC,235210.07,A,3152.6546,N,11714.6581,E,0.000,262.049,190414,0,W,A*37
$GPVTG,262.049,T,262.049,M,0.000,N,0.000,K,A*23
$GPGSA,A,3,15,26,21,18,29,24,,,,,,,2.072,1.249,1.653*3D
$GPGSV,3,1,9,29,10,214,50,14,3,243,18,15,59,24,43,18,40,314,20*40
$GPGSV,3,2,9,21,58,288,39,22,7,299,17,24,60,155,39,26,24,46,31*4D
$GPGSV,3,3,9,5,20,100,0*76
$GPGGA,235211.07,3152.6546,N,11714.6581,E,1,6,1.249,166.825,M,-3.806,M,0,0*47
$GPRMC,235211.07,A,3152.6546,N,11714.6581,E,0.000,262.049,190414,0,W,A*36
$GPVTG,262.049,T,262.049,M,0.000,N,0.000,K,A*23
$GPGSA,A,3,15,26,21,18,29,24,,,,,,,2.071,1.249,1.653*3E
$GPGSV,3,1,9,29,10,214,49,14,3,243,18,15,59,24,43,18,40,314,20*48
$GPGSV,3,2,9,21,58,288,39,22,7,299,12,24,60,155,38,26,24,46,31*49
$GPGSV,3,3,9,5,20,100,0*76
$GPGGA,235212.07,3152.6546,N,11714.6581,E,1,6,1.249,166.825,M,-3.806,M,0,0*44
$GPRMC,235212.07,A,3152.6546,N,11714.6581,E,0.000,262.049,190414,0,W,A*35
$GPVTG,262.049,T,262.049,M,0.000,N,0.000,K,A*23
$GPGSA,A,3,15,26,21,18,29,24,,,,,,,2.071,1.249,1.652*3F
$GPGSV,3,1,9,29,10,214,48,14,3,243,18,15,59,24,43,18,40,314,20*49
$GPGSV,3,2,9,21,58,288,38,22,7,299,12,24,60,155,38,26,24,46,30*49
$GPGSV,3,3,9,5,20,100,0*76
$GPGGA,235213.07,3152.6546,N,11714.6581,E,1,6,1.249,166.825,M,-3.806,M,0,0*45
$GPRMC,235213.07,A,3152.6546,N,11714.6581,E,0.000,262.049,190414,0,W,A*34
$GPVTG,262.049,T,262.049,M,0.000,N,0.000,K,A*23
$GPGSA,A,3,15,26,21,18,29,24,,,,,,,2.071,1.249,1.652*3F
$GPGSV,3,1,9,29,10,214,48,14,3,243,19,15,59,24,42,18,40,314,20*49
$GPGSV,3,2,9,21,58,288,38,26,24,46,28,24,60,155,38,22,7,299,0*73
$GPGSV,3,3,9,5,20,100,0*76
$GPGGA,235214.07,3152.6546,N,11714.6581,E,1,6,1.249,166.825,M,-3.806,M,0,0*42
$GPRMC,235214.07,A,3152.6546,N,11714.6581,E,0.000,262.049,190414,0,W,A*33
$GPVTG,262.049,T,262.049,M,0.000,N,0.000,K,A*23
$GPGSA,A,3,15,26,21,18,29,24,,,,,,,2.071,1.249,1.652*3F
$GPGSV,3,1,9,29,10,214,48,14,3,243,17,15,59,24,42,18,40,314,20*47
$GPGSV,3,2,9,21,58,288,38,26,24,46,28,24,60,155,38,22,7,299,0*73
$GPGSV,3,3,9,5,20,100,0*76
$GPGGA,235215.07,3152.6546,N,11714.6581,E,1,6,1.249,166.825,M,-3.806,M,0,0*43
$GPRMC,235215.07,A,3152.6546,N,11714.6581,E,0.000,262.049,190414,0,W,A*32
$GPVTG,262.049,T,262.049,M,0.000,N,0.000,K,A*23
$GPGSA,A,3,15,26,21,18,29,24,,,,,,,2.071,1.249,1.652*3F
$GPGSV,3,1,9,29,10,214,48,14,3,243,19,15,59,24,42,18,40,314,19*43
$GPGSV,3,2,9,21,58,288,38,26,24,46,27,24,60,155,38,22,7,299,0*7C
$GPGSV,3,3,9,5,20,100,0*76
$GPGGA,235216.07,3152.6546,N,11714.6581,E,1,5,1.621,166.825,M,-3.806,M,0,0*49
$GPRMC,235216.07,A,3152.6546,N,11714.6581,E,0.000,262.049,190414,0,W,A*31
$GPVTG,262.049,T,262.049,M,0.000,N,0.000,K,A*23
$GPGSA,A,3,15,26,21,29,24,,,,,,,,2.326,1.621,1.668*34
$GPGSV,3,1,9,29,10,214,48,14,3,243,21,15,59,24,42,18,40,314,20*42
$GPGSV,3,2,9,21,58,288,38,26,24,46,25,24,60,155,38,22,7,299,0*7E
$GPGSV,3,3,9,5,20,100,0*76
$GPGGA,235217.07,3152.6546,N,11714.6581,E,1,5,1.622,166.825,M,-3.806,M,0,0*4B
$GPRMC,235217.07,A,3152.6546,N,11714.6581,E,0.000,262.049,190414,0,W,A*30
$GPVTG,262.049,T,262.049,M,0.000,N,0.000,K,A*23
$GPGSA,A,3,15,26,21,29,24,,,,,,,,2.326,1.622,1.668*37
$GPGSV,3,1,9,29,10,214,48,14,3,243,22,15,59,24,41,18,40,314,20*42
$GPGSV,3,2,9,21,58,288,38,26,24,46,25,24,60,155,39,22,7,299,0*7F
$GPGSV,3,3,9,5,20,100,0*76
$GPGGA,235218.07,3152.6546,N,11714.6581,E,1,6,1.249,166.825,M,-3.806,M,0,0*4E
$GPRMC,235218.07,A,3152.6546,N,11714.6581,E,0.000,262.049,190414,0,W,A*3F
$GPVTG,262.049,T,262.049,M,0.000,N,0.000,K,A*23
$GPGSA,A,3,15,26,21,18,29,24,,,,,,,2.070,1.249,1.651*3D
$GPGSV,3,1,9,29,10,214,48,14,3,243,23,15,59,24,42,18,40,314,21*41
$GPGSV,3,2,9,21,58,288,38,26,24,46,25,24,60,155,39,22,7,299,0*7F
$GPGSV,3,3,9,5,20,100,0*76
$GPGGA,235219.07,3152.6546,N,11714.6581,E,1,6,1.249,166.825,M,-3.806,M,0,0*4F
$GPRMC,235219.07,A,3152.6546,N,11714.6581,E,0.000,262.049,190414,0,W,A*3E
$GPVTG,262.049,T,262.049,M,0.000,N,0.000,K,A*23
$GPGSA,A,3,15,26,21,18,29,24,,,,,,,2.070,1.249,1.650*3C
$GPGSV,3,1,9,29,10,214,48,14,3,243,23,15,59,24,42,18,40,314,20*40
$GPGSV,3,2,9,21,58,288,38,26,24,46,26,24,60,155,39,22,7,299,0*7C
$GPGSV,3,3,9,5,20,100,0*76
$GPGGA,235220.07,3152.6546,N,11714.6581,E,1,6,1.249,166.825,M,-3.806,M,0,0*45
$GPRMC,235220.07,A,3152.6546,N,11714.6581,E,0.000,262.049,190414,0,W,A*34
$GPVTG,262.049,T,262.049,M,0.000,N,0.000,K,A*23
$GPGSA,A,3,15,21,18,29,24,26,,,,,,,2.070,1.249,1.650*3C
$GPGSV,3,1,9,29,10,214,48,14,3,243,24,15,59,24,42,18,40,314,19*4D
$GPGSV,3,2,9,21,58,288,38,26,24,46,27,24,60,155,39,22,7,299,0*7D
$GPGSV,3,3,9,5,20,100,0*76
$GPGGA,235221.07,3152.6546,N,11714.6581,E,1,6,1.249,166.825,M,-3.806,M,0,0*44
$GPRMC,235221.07,A,3152.6546,N,11714.6581,E,0.000,262.049,190414,0,W,A*35
$GPVTG,262.049,T,262.049,M,0.000,N,0.000,K,A*23
$GPGSA,A,3,15,26,21,18,29,24,,,,,,,2.069,1.249,1.650*34
$GPGSV,3,1,9,29,10,214,49,14,3,243,24,15,59,24,42,18,40,314,21*47
$GPGSV,3,2,9,21,58,288,39,26,24,46,27,24,60,155,38,22,7,299,0*7D
$GPGSV,3,3,9,5,20,100,0*76
$GPGGA,235222.07,3152.6546,N,11714.6581,E,1,6,1.249,166.825,M,-3.806,M,0,0*47
$GPRMC,235222.07,A,3152.6546,N,11714.6581,E,0.000,262.049,190414,0,W,A*36
$GPVTG,262.049,T,262.049,M,0.000,N,0.000,K,A*23
$GPGSA,A,3,15,26,21,18,29,24,,,,,,,2.069,1.249,1.650*34
$GPGSV,3,1,9,29,10,214,49,14,3,243,24,15,59,24,42,18,40,314,22*44
$GPGSV,3,2,9,21,58,288,39,26,24,46,28,24,60,155,38,22,7,299,0*72
$GPGSV,3,3,9,5,20,100,0*76
$GPGGA,235223.07,3152.6546,N,11714.6581,E,1,6,1.249,166.825,M,-3.806,M,0,0*46
$GPRMC,235223.07,A,3152.6546,N,11714.6581,E,0.000,262.049,190414,0,W,A*37
$GPVTG,262.049,T,262.049,M,0.000,N,0.000,K,A*23
$GPGSA,A,3,15,26,21,18,29,24,,,,,,,2.069,1.249,1.649*3C
$GPGSV,3,1,9,29,10,214,49,14,3,243,24,15,59,24,41,18,40,314,23*46
$GPGSV,3,2,9,21,58,288,38,26,24,46,28,24,60,154,37,22,7,299,0*7D
$GPGSV,3,3,9,5,20,100,0*76
$GPGGA,235224.07,3152.6546,N,11714.6581,E,1,6,1.249,166.825,M,-3.806,M,0,0*41
$GPRMC,235224.07,A,3152.6546,N,11714.6581,E,0.000,262.049,190414,0,W,A*30
$GPVTG,262.049,T,262.049,M,0.000,N,0.000,K,A*23
$GPGSA,A,3,15,26,21,18,29,24,,,,,,,2.069,1.249,1.649*3C
$GPGSV,3,1,9,29,10,214,49,14,3,243,25,15,59,24,41,18,40,314,23*47
$GPGSV,3,2,9,21,58,288,38,26,24,46,29,24,60,154,37,22,7,299,0*7C
$GPGSV,3,3,9,5,20,100,0*76
$GPGGA,235225.07,3152.6546,N,11714.6581,E,1,6,1.250,166.825,M,-3.806,M,0,0*48
$GPRMC,235225.07,A,3152.6546,N,11714.6581,E,0.000,262.049,190414,0,W,A*31
$GPVTG,262.049,T,262.049,M,0.000,N,0.000,K,A*23
$GPGSA,A,3,15,26,21,18,29,24,,,,,,,2.069,1.250,1.649*34
$GPGSV,3,1,9,29,10,214,48,14,3,243,25,15,59,24,41,18,40,314,22*47
$GPGSV,3,2,9,21,58,288,38,22,7,299,2,24,60,154,37,26,24,46,29*7E
$GPGSV,3,3,9,5,20,100,0*76
$GPGGA,235226.07,3152.6546,N,11714.6581,E,1,6,1.250,166.825,M,-3.806,M,0,0*4B
$GPRMC,235226.07,A,3152.6546,N,11714.6581,E,0.000,262.049,190414,0,W,A*32
$GPVTG,262.049,T,262.049,M,0.000,N,0.000,K,A*23
$GPGSA,A,3,15,26,21,18,29,24,,,,,,,2.068,1.250,1.648*34
$GPGSV,3,1,9,29,10,214,48,14,3,243,25,15,59,24,41,18,40,314,21*44
$GPGSV,3,2,9,21,58,288,38,26,24,46,29,24,60,154,38,22,7,299,0*73
$GPGSV,3,3,9,5,20,100,0*76
$GPGGA,235227.07,3152.6546,N,11714.6581,E,1,6,1.250,166.825,M,-3.806,M,0,0*4A
$GPRMC,235227.07,A,3152.6546,N,11714.6581,E,0.000,262.049,190414,0,W,A*33
$GPVTG,262.049,T,262.049,M,0.000,N,0.000,K,A*23
$GPGSA,A,3,15,26,21,18,29,24,,,,,,,2.068,1.250,1.648*34
$GPGSV,3,1,9,29,10,214,48,14,3,243,23,15,59,24,42,18,40,314,18*4B
$GPGSV,3,2,9,21,58,288,38,26,24,46,30,24,60,154,38,22,7,299,0*7B
$GPGSV,3,3,9,5,20,101,0*77
$GPGGA,235228.07,3152.6546,N,11714.6581,E,1,6,1.250,166.825,M,-3.806,M,0,0*45
$GPRMC,235228.07,A,3152.6546,N,11714.6581,E,0.000,262.049,190414,0,W,A*3C
$GPVTG,262.049,T,262.049,M,0.000,N,0.000,K,A*23
$GPGSA,A,3,15,26,21,18,29,24,,,,,,,2.068,1.250,1.648*34
$GPGSV,3,1,9,29,10,214,47,14,3,243,23,15,59,24,41,18,40,314,17*48
$GPGSV,3,2,9,21,58,288,37,26,24,46,30,24,60,154,39,22,7,299,0*75
$GPGSV,3,3,9,5,20,101,0*77
$GPGGA,235229.07,3152.6546,N,11714.6581,E,1,6,1.250,166.825,M,-3.806,M,0,0*44
$GPRMC,235229.07,A,3152.6546,N,11714.6581,E,0.000,262.049,190414,0,W,A*3D
$GPVTG,262.049,T,262.049,M,0.000,N,0.000,K,A*23
$GPGSA,A,3,15,26,21,18,29,24,,,,,,,2.068,1.250,1.647*3B
$GPGSV,3,1,9,29,10,214,47,14,3,243,22,15,59,24,41,18,40,314,16*48
$GPGSV,3,2,9,21,58,288,37,26,24,46,31,24,60,154,39,22,7,299,0*74
$GPGSV,3,3,9,5,20,101,0*77
$GPGGA,235230.07,3152.6546,N,11714.6581,E,1,6,1.250,166.825,M,-3.806,M,0,0*4C
$GPRMC,235230.07,A,3152.6546,N,11714.6581,E,0.000,262.049,190414,0,W,A*35
$GPVTG,262.049,T,262.049,M,0.000,N,0.000,K,A*23
$GPGSA,A,3,15,26,21,18,29,24,,,,,,,2.068,1.250,1.647*3B
$GPGSV,3,1,9,29,10,214,46,14,3,243,20,15,59,24,41,18,40,314,18*45
$GPGSV,3,2,9,21,58,288,37,26,24,46,31,24,60,154,39,22,7,299,0*74
$GPGSV,3,3,9,5,20,101,0*77
$GPGGA,235231.07,3152.6546,N,11714.6581,E,1,6,1.250,166.825,M,-3.806,M,0,0*4D
$GPRMC,235231.07,A,3152.6546,N,11714.6581,E,0.000,262.049,190414,0,W,A*34
$GPVTG,262.049,T,262.049,M,0.000,N,0.000,K,A*23
$GPGSA,A,3,15,26,21,18,29,24,,,,,,,2.068,1.250,1.647*3B
$GPGSV,3,1,9,29,10,214,46,14,3,243,19,15,59,24,41,18,40,314,19*4E
$GPGSV,3,2,9,21,58,288,37,22,7,299,3,24,60,154,39,26,24,46,32*74
$GPGSV,3,3,9,5,20,101,0*77
$GPGGA,235232.07,3152.6546,N,11714.6581,E,1,5,1.624,166.825,M,-3.806,M,0,0*4A
$GPRMC,235232.07,A,3152.6546,N,11714.6581,E,0.000,262.049,190414,0,W,A*37
$GPVTG,262.049,T,262.049,M,0.000,N,0.000,K,A*23
$GPGSA,A,3,15,26,21,29,24,,,,,,,,2.325,1.624,1.663*39
$GPGSV,3,1,9,29,10,214,46,14,3,243,18,15,59,24,41,18,40,314,22*47
$GPGSV,3,2,9,21,58,288,38,26,24,46,33,24,60,154,38,22,7,299,0*78
$GPGSV,3,3,9,5,20,101,0*77
$GPGGA,235233.07,3152.6546,N,11714.6581,E,1,6,1.250,166.825,M,-3.806,M,0,0*4F
$GPRMC,235233.07,A,3152.6546,N,11714.6581,E,0.000,262.049,190414,0,W,A*36
$GPVTG,262.049,T,262.049,M,0.000,N,0.000,K,A*23
$GPGSA,A,3,15,26,21,18,29,24,,,,,,,2.067,1.250,1.646*35
$GPGSV,3,1,9,29,10,214,47,14,3,243,19,15,59,24,41,18,40,314,21*44
$GPGSV,3,2,9,21,58,288,38,26,24,46,33,24,60,154,39,22,7,299,0*79
$GPGSV,3,3,9,5,20,101,0*77
$GPGGA,235234.07,3152.6546,N,11714.6581,E,1,6,1.250,166.825,M,-3.806,M,0,0*48
$GPRMC,235234.07,A,3152.6546,N,11714.6581,E,0.000,262.049,190414,0,W,A*31
$GPVTG,262.049,T,262.049,M,0.000,N,0.000,K,A*23
$GPGSA,A,3,15,26,21,18,29,24,,,,,,,2.067,1.250,1.646*35
$GPGSV,3,1,9,29,10,214,47,14,3,243,20,15,59,24,41,18,40,314,20*4F
$GPGSV,3,2,9,21,58,288,38,22,7,299,2,24,60,154,39,26,24,46,34*7C
$GPGSV,3,3,9,5,20,101,0*77
$GPGGA,235235.07,3152.6546,N,11714.6581,E,1,6,1.250,166.825,M,-3.806,M,0,0*49
$GPRMC,235235.07,A,3152.6546,N,11714.6581,E,0.000,262.049,190414,0,W,A*30
$GPVTG,262.049,T,262.049,M,0.000,N,0.000,K,A*23
$GPGSA,A,3,15,26,21,18,29,24,,,,,,,2.067,1.250,1.646*35
$GPGSV,3,1,9,29,10,214,48,14,3,243,20,15,59,24,41,18,40,314,19*4A
$GPGSV,3,2,9,21,58,288,38,26,24,46,35,24,60,154,40,22,7,299,0*71
$GPGSV,3,3,9,5,20,101,0*77
$GPGGA,235236.07,3152.6546,N,11714.6581,E,1,6,1.250,166.825,M,-3.806,M,0,0*4A
$GPRMC,235236.07,A,3152.6546,N,11714.6581,E,0.000,262.049,190414,0,W,A*33
$GPVTG,262.049,T,262.049,M,0.000,N,0.000,K,A*23
$GPGSA,A,3,15,26,21,18,29,24,,,,,,,2.067,1.250,1.645*36
$GPGSV,3,1,9,29,10,214,48,14,3,243,20,15,59,24,40,18,40,314,18*4A
$GPGSV,3,2,9,21,58,288,38,26,24,46,34,24,60,154,40,22,7,299,0*70
$GPGSV,3,3,9,5,20,101,0*77
$GPGGA,235237.07,3152.6546,N,11714.6581,E,1,6,1.250,166.825,M,-3.806,M,0,0*4B
$GPRMC,235237.07,A,3152.6546,N,11714.6581,E,0.000,262.049,190414,0,W,A*32
$GPVTG,262.049,T,262.049,M,0.000,N,0.000,K,A*23
$GPGSA,A,3,15,26,21,18,29,24,,,,,,,2.066,1.250,1.645*37
$GPGSV,3,1,9,29,10,214,48,14,3,244,19,15,59,24,40,18,40,314,17*48
$GPGSV,3,2,9,21,58,288,38,26,24,46,35,24,60,154,40,22,7,299,0*71
$GPGSV,3,3,9,5,20,101,0*77
$GPGGA,235238.07,3152.6546,N,11714.6581,E,1,6,1.250,166.825,M,-3.806,M,0,0*44
$GPRMC,235238.07,A,3152.6546,N,11714.6581,E,0.000,262.049,190414,0,W,A*3D
$GPVTG,262.049,T,262.049,M,0.000,N,0.000,K,A*23
$GPGSA,A,3,15,26,21,18,29,24,,,,,,,2.066,1.250,1.645*37
$GPGSV,3,1,9,29,10,214,48,14,3,244,18,15,59,24,41,18,40,314,17*48
$GPGSV,3,2,9,21,58,288,39,26,24,46,35,24,60,154,40,22,7,299,0*70
$GPGSV,3,3,9,5,20,101,0*77
$GPGGA,235239.07,3152.6546,N,11714.6581,E,1,6,1.250,166.825,M,-3.806,M,0,0*45
$GPRMC,235239.07,A,3152.6546,N,11714.6581,E,0.000,262.049,190414,0,W,A*3C
$GPVTG,262.049,T,262.049,M,0.000,N,0.000,K,A*23
$GPGSA,A,3,15,26,21,29,24,18,,,,,,,2.066,1.250,1.645*37
$GPGSV,3,1,9,29,10,214,48,14,3,244,18,15,59,24,41,18,40,314,22*4E
$GPGSV,3,2,9,21,58,288,39,26,24,46,35,24,60,154,41,22,7,299,0*71
$GPGSV,3,3,9,5,20,101,0*77
$GPGGA,235240.07,3152.6546,N,11714.6581,E,1,6,1.251,166.825,M,-3.806,M,0,0*4A
$GPRMC,235240.07,A,3152.6546,N,11714.6581,E,0.000,262.049,190414,0,W,A*32
$GPVTG,262.049,T,262.049,M,0.000,N,0.000,K,A*23
$GPGSA,A,3,15,26,21,18,29,24,,,,,,,2.066,1.251,1.644*37
$GPGSV,3,1,9,29,10,214,48,14,3,244,19,15,59,24,42,18,40,314,24*4A
$GPGSV,3,2,9,21,58,288,39,26,24,46,35,24,60,154,41,22,7,299,0*71
$GPGSV,3,3,9,5,20,101,0*77
$GPGGA,235241.07,3152.6546,N,11714.6581,E,1,6,1.251,166.825,M,-3.806,M,0,0*4B
$GPRMC,235241.07,A,3152.6546,N,11714.6581,E,0.000,262.049,190414,0,W,A*33
$GPVTG,262.049,T,262.049,M,0.000,N,0.000,K,A*23
$GPGSA,A,3,15,26,21,18,29,24,,,,,,,2.066,1.251,1.644*37
$GPGSV,3,1,9,29,10,214,48,14,3,244,19,15,59,24,42,18,40,314,24*4A
$GPGSV,3,2,9,21,58,288,39,26,24,46,36,24,60,154,40,22,7,299,0*73
$GPGSV,3,3,9,5,20,101,0*77
$GPGGA,235242.07,3152.6546,N,11714.6581,E,1,6,1.251,166.825,M,-3.806,M,0,0*48
$GPRMC,235242.07,A,3152.6546,N,11714.6581,E,0.000,262.049,190414,0,W,A*30
$GPVTG,262.049,T,262.049,M,0.000,N,0.000,K,A*23
$GPGSA,A,3,15,26,21,18,29,24,,,,,,,2.065,1.251,1.644*34
$GPGSV,3,1,9,29,10,214,49,14,3,244,19,15,59,24,42,18,40,314,24*4B
$GPGSV,3,2,9,21,58,288,39,22,7,299,2,24,60,154,40,26,24,46,35*72
$GPGSV,3,3,9,5,20,101,0*77
$GPGGA,235243.07,3152.6546,N,11714.6581,E,1,6,1.251,166.825,M,-3.806,M,0,0*49
$GPRMC,235243.07,A,3152.6546,N,11714.6581,E,0.000,262.049,190414,0,W,A*31
$GPVTG,262.049,T,262.049,M,0.000,N,0.000,K,A*23
$GPGSA,A,3,15,26,21,29,24,18,,,,,,,2.065,1.251,1.643*33
$GPGSV,3,1,9,29,10,214,49,14,3,244,18,15,59,24,42,18,40,314,24*4A
$GPGSV,3,2,9,21,58,288,39,26,24,46,35,24,60,154,40,22,7,299,0*70
$GPGSV,3,3,9,5,20,101,0*77
$GPGGA,235244.07,3152.6546,N,11714.6581,E,1,6,1.251,166.825,M,-3.806,M,0,0*4E
$GPRMC,235244.07,A,3152.6546,N,11714.6581,E,0.000,262.049,190414,0,W,A*36
$GPVTG,262.049,T,262.049,M,0.000,N,0.000,K,A*23
$GPGSA,A,3,15,26,21,18,29,24,,,,,,,2.065,1.251,1.643*33
$GPGSV,3,1,9,29,10,214,48,14,3,244,17,15,59,24,42,18,40,314,22*42
$GPGSV,3,2,9,21,58,288,38,26,24,46,35,24,60,154,39,22,7,299,0*7F
$GPGSV,3,3,9,5,20,101,0*77
$GPGGA,235245.07,3152.6546,N,11714.6581,E,1,6,1.251,166.825,M,-3.806,M,0,0*4F
$GPRMC,235245.07,A,3152.6546,N,11714.6581,E,0.000,262.049,190414,0,W,A*37
$GPVTG,262.049,T,262.049,M,0.000,N,0.000,K,A*23
$GPGSA,A,3,15,26,21,18,29,24,,,,,,,2.065,1.251,1.643*33
$GPGSV,3,1,9,29,10,214,48,14,3,244,13,15,59,24,41,18,40,314,20*47
$GPGSV,3,2,9,21,58,288,39,26,24,46,35,24,60,154,39,22,7,299,0*7E
$GPGSV,3,3,9,5,20,101,0*77
$GPGGA,235246.07,3152.6546,N,11714.6581,E,1,6,1.251,166.825,M,-3.806,M,0,0*4C
$GPRMC,235246.07,A,3152.6546,N,11714.6581,E,0.000,262.049,190414,0,W,A*34
$GPVTG,262.049,T,262.049,M,0.000,N,0.000,K,A*23
$GPGSA,A,3,15,26,21,18,29,24,,,,,,,2.065,1.251,1.643*33
$GPGSV,3,1,9,29,10,214,48,14,3,244,15,15,59,24,41,18,40,314,21*40
$GPGSV,3,2,9,21,58,288,38,26,24,46,35,24,60,154,39,22,7,299,0*7F
$GPGSV,3,3,9,5,20,101,0*77
$GPGGA,235247.07,3152.6546,N,11714.6581,E,1,6,1.251,166.825,M,-3.806,M,0,0*4D
$GPRMC,235247.07,A,3152.6546,N,11714.6581,E,0.000,262.049,190414,0,W,A*35
$GPVTG,262.049,T,262.049,M,0.000,N,0.000,K,A*23
$GPGSA,A,3,15,26,21,29,24,18,,,,,,,2.064,1.251,1.642*33
$GPGSV,3,1,9,29,10,214,48,14,3,244,17,15,59,24,41,18,40,314,22*41
$GPGSV,3,2,9,21,58,288,38,26,24,46,35,24,60,154,40,22,7,299,0*71
$GPGSV,3,3,9,5,20,101,0*77
$GPGGA,235248.07,3152.6546,N,11714.6581,E,1,6,1.251,166.825,M,-3.806,M,0,0*42
$GPRMC,235248.07,A,3152.6546,N,11714.6581,E,0.000,262.049,190414,0,W,A*3A
$GPVTG,262.049,T,262.049,M,0.000,N,0.000,K,A*23
$GPGSA,A,3,15,26,21,29,24,18,,,,,,,2.064,1.251,1.642*33
$GPGSV,3,1,9,29,10,214,48,14,3,244,18,15,59,24,41,18,40,314,22*4E
$GPGSV,3,2,9,21,58,288,39,26,24,46,36,24,60,154,40,22,7,299,0*73
$GPGSV,3,3,9,5,20,101,0*77
$GPGGA,235249.07,3152.6546,N,11714.6581,E,1,6,1.251,166.825,M,-3.806,M,0,0*43
$GPRMC,235249.07,A,3152.6546,N,11714.6581,E,0.000,262.049,190414,0,W,A*3B
$GPVTG,262.049,T,262.049,M,0.000,N,0.000,K,A*23
$GPGSA,A,3,15,26,21,18,29,24,,,,,,,2.064,1.251,1.642*33
$GPGSV,3,1,9,29,10,214,48,14,3,244,20,15,59,24,41,18,40,314,23*44
$GPGSV,3,2,9,21,58,288,39,22,7,299,2,24,60,154,40,26,24,46,36*71
$GPGSV,3,3,9,5,20,101,0*77
$GPGGA,235250.07,3152.6546,N,11714.6581,E,1,6,1.251,166.825,M,-3.806,M,0,0*4B
$GPRMC,235250.07,A,3152.6546,N,11714.6581,E,0.000,262.049,190414,0,W,A*33
$GPVTG,262.049,T,262.049,M,0.000,N,0.000,K,A*23
$GPGSA,A,3,15,26,21,18,29,24,,,,,,,2.064,1.251,1.641*30
$GPGSV,3,1,9,29,10,214,48,14,3,244,21,15,59,24,41,18,40,314,23*45
$GPGSV,3,2,9,21,58,288,39,26,24,46,37,24,60,154,40,22,7,299,0*72
$GPGSV,3,3,9,5,20,101,0*77
$GPGGA,235251.07,3152.6546,N,11714.6581,E,1,6,1.251,166.825,M,-3.806,M,0,0*4A
$GPRMC,235251.07,A,3152.6546,N,11714.6581,E,0.000,262.049,190414,0,W,A*32
$GPVTG,262.049,T,262.049,M,0.000,N,0.000,K,A*23
$GPGSA,A,3,15,26,21,18,29,24,,,,,,,2.064,1.251,1.641*30
$GPGSV,3,1,9,29,10,214,48,14,3,244,21,15,59,24,41,18,40,314,23*45
$GPGSV,3,2,9,21,58,288,39,26,24,46,37,24,60,154,40,22,7,299,0*72
$GPGSV,3,3,9,5,20,101,0*77
$GPGGA,235252.07,3152.6546,N,11714.6581,E,1,6,1.251,166.825,M,-3.806,M,0,0*49
$GPRMC,235252.07,A,3152.6546,N,11714.6581,E,0.000,262.049,190414,0,W,A*31
$GPVTG,262.049,T,262.049,M,0.000,N,0.000,K,A*23
$GPGSA,A,3,15,26,21,18,29,24,,,,,,,2.064,1.251,1.641*30
$GPGSV,3,1,9,29,10,214,49,14,3,244,22,15,59,24,41,18,40,314,22*46
$GPGSV,3,2,9,21,58,288,39,26,24,46,37,24,60,154,40,22,7,299,0*72
$GPGSV,3,3,9,5,20,101,0*77
$GPGGA,235253.07,3152.6546,N,11714.6581,E,1,6,1.251,166.825,M,-3.806,M,0,0*48
$GPRMC,235253.07,A,3152.6546,N,11714.6581,E,0.000,262.049,190414,0,W,A*30
$GPVTG,262.049,T,262.049,M,0.000,N,0.000,K,A*23
$GPGSA,A,3,15,26,21,29,24,18,,,,,,,2.063,1.251,1.641*37
$GPGSV,3,1,9,29,10,214,49,14,3,244,23,15,59,24,42,18,40,314,24*42
$GPGSV,3,2,9,21,58,288,40,26,24,46,38,24,60,154,40,22,7,299,0*73
$GPGSV,3,3,9,5,20,101,0*77
$GPGGA,235254.07,3152.6546,N,11714.6581,E,1,6,1.251,166.825,M,-3.806,M,0,0*4F
$GPRMC,235254.07,A,3152.6546,N,11714.6581,E,0.000,262.049,190414,0,W,A*37
$GPVTG,262.049,T,262.049,M,0.000,N,0.000,K,A*23
$GPGSA,A,3,15,26,21,18,29,24,,,,,,,2.063,1.251,1.640*36
$GPGSV,3,1,9,29,10,214,49,14,3,244,24,15,59,24,42,18,40,314,25*44
$GPGSV,3,2,9,21,58,288,40,26,24,46,39,24,60,154,40,22,7,299,0*72
$GPGSV,3,3,9,5,20,101,0*77
$GPGGA,235255.07,3152.6546,N,11714.6581,E,1,6,1.252,166.825,M,-3.806,M,0,0*4D
$GPRMC,235255.07,A,3152.6546,N,11714.6581,E,0.000,262.049,190414,0,W,A*36
$GPVTG,262.049,T,262.049,M,0.000,N,0.000,K,A*23
$GPGSA,A,3,15,26,21,18,29,24,,,,,,,2.063,1.252,1.640*35
$GPGSV,3,1,9,29,10,214,49,14,3,244,24,15,59,24,42,18,40,314,24*45
$GPGSV,3,2,9,21,58,288,40,22,7,299,3,24,60,154,41,26,24,46,39*70
$GPGSV,3,3,9,5,20,101,0*77
$GPGGA,235256.07,3152.6546,N,11714.6581,E,1,6,1.252,166.825,M,-3.806,M,0,0*4E
$GPRMC,235256.07,A,3152.6546,N,11714.6581,E,0.000,262.049,190414,0,W,A*35
$GPVTG,262.049,T,262.049,M,0.000,N,0.000,K,A*23
$GPGSA,A,3,15,26,21,29,24,18,,,,,,,2.063,1.252,1.640*35
$GPGSV,3,1,9,29,10,214,50,14,3,244,25,15,59,24,42,18,40,314,26*4E
$GPGSV,3,2,9,21,58,288,41,26,24,46,39,24,60,154,41,22,7,299,0*72
$GPGSV,3,3,9,5,20,101,0*77
$GPGGA,235257.07,3152.6546,N,11714.6581,E,1,6,1.252,166.825,M,-3.806,M,0,0*4F
$GPRMC,235257.07,A,3152.6546,N,11714.6581,E,0.000,262.049,190414,0,W,A*34
$GPVTG,262.049,T,262.049,M,0.000,N,0.000,K,A*23
$GPGSA,A,3,15,26,21,18,29,24,,,,,,,2.063,1.252,1.639*3B
$GPGSV,3,1,9,29,10,214,50,14,3,244,25,15,59,24,42,18,40,314,28*40
$GPGSV,3,2,9,21,58,288,41,26,24,46,39,24,60,154,41,22,7,299,0*72
$GPGSV,3,3,9,5,20,101,0*77
$GPGGA,235258.07,3152.6546,N,11714.6581,E,1,6,1.252,166.825,M,-3.806,M,0,0*40
$GPRMC,235258.07,A,3152.6546,N,11714.6581,E,0.000,262.049,190414,0,W,A*3B
$GPVTG,262.049,T,262.049,M,0.000,N,0.000,K,A*23
$GPGSA,A,3,15,26,21,18,29,24,,,,,,,2.062,1.252,1.639*3A
$GPGSV,3,1,9,29,10,214,50,14,3,244,25,15,59,24,42,18,40,314,29*41
$GPGSV,3,2,9,21,58,288,40,26,24,46,39,24,60,154,41,22,7,299,0*73
$GPGSV,3,3,9,5,20,101,0*77
$GPGGA,235259.07,3152.6546,N,11714.6581,E,1,6,1.252,166.825,M,-3.806,M,0,0*41
$GPRMC,235259.07,A,3152.6546,N,11714.6581,E,0.000,262.049,190414,0,W,A*3A
$GPVTG,262.049,T,262.049,M,0.000,N,0.000,K,A*23
$GPGSA,A,3,15,26,21,18,29,24,,,,,,,2.062,1.252,1.639*3A
$GPGSV,3,1,9,29,10,214,50,14,3,244,25,15,59,24,42,18,40,314,30*49
$GPGSV,3,2,9,21,58,288,40,22,8,299,3,24,60,154,41,26,24,46,39*7F
$GPGSV,3,3,9,5,20,101,0*77
$GPGGA,235300.07,3152.6546,N,11714.6581,E,1,6,1.252,166.825,M,-3.806,M,0,0*4C
$GPRMC,235300.07,A,3152.6546,N,11714.6581,E,0.000,262.049,190414,0,W,A*37
$GPVTG,262.049,T,262.049,M,0.000,N,0.000,K,A*23
$GPGSA,A,3,15,26,21,18,29,24,,,,,,,2.062,1.252,1.638*3B
$GPGSV,3,1,9,29,10,214,50,14,3,244,25,15,59,24,42,18,40,314,31*48
$GPGSV,3,2,9,21,58,288,39,26,24,46,39,24,60,154,40,22,8,299,0*73
$GPGSV,3,3,9,5,20,101,0*77
$GPGGA,235301.07,3152.6546,N,11714.6581,E,1,6,1.252,166.825,M,-3.806,M,0,0*4D
$GPRMC,235301.07,A,3152.6546,N,11714.6581,E,0.000,262.049,190414,0,W,A*36
$GPVTG,262.049,T,262.049,M,0.000,N,0.000,K,A*23
$GPGSA,A,3,15,26,21,18,29,24,,,,,,,2.062,1.252,1.638*3B
$GPGSV,3,1,9,29,10,214,49,14,3,244,25,15,59,24,42,18,40,314,31*40
$GPGSV,3,2,9,21,58,287,39,26,24,46,39,24,60,154,40,22,8,299,0*7C
$GPGSV,3,3,9,5,20,101,0*77
$GPGGA,235302.07,3152.6546,N,11714.6581,E,1,6,1.252,166.825,M,-3.806,M,0,0*4E
$GPRMC,235302.07,A,3152.6546,N,11714.6581,E,0.000,262.049,190414,0,W,A*35
$GPVTG,262.049,T,262.049,M,0.000,N,0.000,K,A*23
$GPGSA,A,3,15,26,21,18,29,24,,,,,,,2.062,1.252,1.638*3B
$GPGSV,3,1,9,29,10,214,50,14,3,244,25,15,59,24,42,18,40,314,31*48
$GPGSV,3,2,9,21,58,287,39,26,24,46,39,24,60,154,39,22,8,299,0*72
$GPGSV,3,3,9,5,20,101,0*77
$GPGGA,235303.07,3152.6546,N,11714.6581,E,1,6,1.252,166.825,M,-3.806,M,0,0*4F
$GPRMC,235303.07,A,3152.6546,N,11714.6581,E,0.000,262.049,190414,0,W,A*34
$GPVTG,262.049,T,262.049,M,0.000,N,0.000,K,A*23
$GPGSA,A,3,15,26,21,18,29,24,,,,,,,2.061,1.252,1.638*38
$GPGSV,3,1,9,29,10,214,50,14,3,244,25,15,59,24,41,18,40,314,31*4B
$GPGSV,3,2,9,21,58,287,39,26,24,46,39,24,60,154,38,22,8,299,0*73
$GPGSV,3,3,9,5,20,101,0*77
$GPGGA,235304.07,3152.6546,N,11714.6581,E,1,6,1.252,166.825,M,-3.806,M,0,0*48
$GPRMC,235304.07,A,3152.6546,N,11714.6581,E,0.000,262.049,190414,0,W,A*33
$GPVTG,262.049,T,262.049,M,0.000,N,0.000,K,A*23
$GPGSA,A,3,15,26,21,18,29,24,,,,,,,2.061,1.252,1.637*37
$GPGSV,3,1,9,29,10,214,50,14,3,244,25,15,59,24,41,18,40,314,30*4A
$GPGSV,3,2,9,21,58,287,38,26,24,46,38,24,60,154,38,22,8,299,0*73
$GPGSV,3,3,9,5,20,101,0*77
$GPGGA,235305.07,3152.6546,N,11714.6581,E,1,6,1.252,166.825,M,-3.806,M,0,0*49
$GPRMC,235305.07,A,3152.6546,N,11714.6581,E,0.000,262.049,190414,0,W,A*32
$GPVTG,262.049,T,262.049,M,0.000,N,0.000,K,A*23
$GPGSA,A,3,15,26,21,18,29,24,,,,,,,2.061,1.252,1.637*37
$GPGSV,3,1,9,29,10,214,50,14,3,244,24,15,59,24,42,18,40,314,28*41
$GPGSV,3,2,9,21,58,287,39,26,24,46,38,24,60,154,39,22,8,299,0*73
$GPGSV,3,3,9,5,20,101,0*77
$GPGGA,235306.07,3152.6546,N,11714.6581,E,1,6,1.252,166.825,M,-3.806,M,0,0*4A
$GPRMC,235306.07,A,3152.6546,N,11714.6581,E,0.000,262.049,190414,0,W,A*31
$GPVTG,262.049,T,262.049,M,0.000,N,0.000,K,A*23
$GPGSA,A,3,15,26,21,18,29,24,,,,,,,2.061,1.252,1.637*37
$GPGSV,3,1,9,29,10,214,50,14,3,244,23,15,59,24,42,18,40,314,27*49
$GPGSV,3,2,9,21,58,287,38,22,8,299,1,24,60,154,40,26,24,46,38*7D
$GPGSV,3,3,9,5,20,101,0*77
$GPGGA,235307.07,3152.6546,N,11714.6581,E,1,6,1.252,166.825,M,-3.806,M,0,0*4B
$GPRMC,235307.07,A,3152.6546,N,11714.6581,E,0.000,262.049,190414,0,W,A*30
$GPVTG,262.049,T,262.049,M,0.000,N,0.000,K,A*23
$GPGSA,A,3,15,26,21,18,29,24,,,,,,,2.061,1.252,1.636*36
$GPGSV,3,1,9,29,10,214,50,14,3,244,22,15,59,24,42,18,40,314,27*48
$GPGSV,3,2,9,21,58,287,39,22,8,299,1,24,60,154,40,26,24,46,37*73
$GPGSV,3,3,9,5,20,101,0*77
$GPGGA,235308.07,3152.6546,N,11714.6581,E,1,6,1.252,166.825,M,-3.806,M,0,0*44
$GPRMC,235308.07,A,3152.6546,N,11714.6581,E,0.000,262.049,190414,0,W,A*3F
$GPVTG,262.049,T,262.049,M,0.000,N,0.000,K,A*23
$GPGSA,A,3,15,26,21,18,29,24,,,,,,,2.061,1.252,1.636*36
$GPGSV,3,1,9,29,10,214,50,14,3,244,20,15,59,24,42,18,40,314,26*4B
$GPGSV,3,2,9,21,58,287,39,26,24,46,37,24,60,154,40,22,8,299,0*72
$GPGSV,3,3,9,5,20,101,0*77
$GPGGA,235309.07,3152.6546,N,11714.6581,E,1,6,1.252,166.825,M,-3.806,M,0,0*45
$GPRMC,235309.07,A,3152.6546,N,11714.6581,E,0.000,262.049,190414,0,W,A*3E
$GPVTG,262.049,T,262.049,M,0.000,N,0.000,K,A*23
$GPGSA,A,3,15,26,21,18,29,24,,,,,,,2.060,1.252,1.636*37
$GPGSV,3,1,9,29,10,214,50,14,3,244,15,15,59,24,42,18,40,314,24*4F
$GPGSV,3,2,9,21,58,287,39,26,24,46,37,24,60,154,40,22,8,299,0*72
$GPGSV,3,3,9,5,20,101,0*77
$GPGGA,235310.07,3152.6546,N,11714.6581,E,1,6,1.253,166.825,M,-3.806,M,0,0*4C
$GPRMC,235310.07,A,3152.6546,N,11714.6581,E,0.000,262.049,190414,0,W,A*36
$GPVTG,262.049,T,262.049,M,0.000,N,0.000,K,A*23
$GPGSA,A,3,15,26,21,18,29,24,,,,,,,2.060,1.253,1.636*36
$GPGSV,3,1,9,29,10,214,50,14,3,244,16,15,59,24,43,18,40,314,25*4C
$GPGSV,3,2,9,21,58,287,38,26,24,46,37,24,60,154,40,22,8,299,0*73
$GPGSV,3,3,9,5,20,101,0*77
$GPGGA,235311.07,3152.6546,N,11714.6581,E,1,6,1.253,166.825,M,-3.806,M,0,0*4D
$GPRMC,235311.07,A,3152.6546,N,11714.6581,E,0.000,262.049,190414,0,W,A*37
$GPVTG,262.049,T,262.049,M,0.000,N,0.000,K,A*23
$GPGSA,A,3,15,26,21,29,24,18,,,,,,,2.060,1.253,1.635*35
$GPGSV,3,1,9,29,10,214,50,14,3,244,17,15,59,24,43,18,40,314,27*4F
$GPGSV,3,2,9,21,58,287,38,26,24,46,37,24,60,154,39,22,8,299,0*7D
$GPGSV,3,3,9,5,20,101,0*77
$GPGGA,235312.07,3152.6546,N,11714.6581,E,1,6,1.253,166.825,M,-3.806,M,0,0*4E
$GPRMC,235312.07,A,3152.6546,N,11714.6581,E,0.000,262.049,190414,0,W,A*34
$GPVTG,262.049,T,262.049,M,0.000,N,0.000,K,A*23
$GPGSA,A,3,15,26,21,18,29,24,,,,,,,2.060,1.253,1.635*35
$GPGSV,3,1,9,29,10,214,50,14,3,244,17,15,59,24,42,18,40,314,26*4F
$GPGSV,3,2,9,21,58,287,38,26,24,46,36,24,60,154,39,22,8,299,0*7C
$GPGSV,3,3,9,5,20,101,0*77
$GPGGA,235313.07,3152.6546,N,11714.6581,E,1,6,1.253,166.825,M,-3.806,M,0,0*4F
$GPRMC,235313.07,A,3152.6546,N,11714.6581,E,0.000,262.049,190414,0,W,A*35
$GPVTG,262.049,T,262.049,M,0.000,N,0.000,K,A*23
$GPGSA,A,3,15,26,21,18,29,24,,,,,,,2.060,1.253,1.635*35
$GPGSV,3,1,9,29,10,214,51,14,3,244,17,15,59,24,42,18,40,314,26*4E
$GPGSV,3,2,9,21,58,287,39,26,24,46,35,24,60,154,39,22,8,299,0*7E
$GPGSV,3,3,9,5,20,101,0*77
$GPGGA,235314.07,3152.6546,N,11714.6581,E,1,6,1.253,166.825,M,-3.806,M,0,0*48
$GPRMC,235314.07,A,3152.6546,N,11714.6581,E,0.000,262.049,190414,0,W,A*32
$GPVTG,262.049,T,262.049,M,0.000,N,0.000,K,A*23
$GPGSA,A,3,15,26,21,18,29,24,,,,,,,2.059,1.253,1.635*3F
$GPGSV,3,1,9,29,10,214,50,14,3,244,16,15,59,24,42,18,40,314,25*4D
$GPGSV,3,2,9,21,58,287,39,26,24,46,35,24,60,154,39,22,8,299,0*7E
$GPGSV,3,3,9,5,20,101,0*77
$GPGGA,235315.07,3152.6546,N,11714.6581,E,1,6,1.253,166.825,M,-3.806,M,0,0*49
$GPRMC,235315.07,A,3152.6546,N,11714.6581,E,0.000,262.049,190414,0,W,A*33
$GPVTG,262.049,T,262.049,M,0.000,N,0.000,K,A*23
$GPGSA,A,3,15,26,21,18,29,24,,,,,,,2.059,1.253,1.634*3E
$GPGSV,3,1,9,29,10,214,50,14,3,244,16,15,59,24,42,18,40,314,26*4E
$GPGSV,3,2,9,21,58,287,40,26,24,46,35,24,60,154,39,22,8,299,0*70
$GPGSV,3,3,9,5,20,101,0*77
$GPGGA,235316.07,3152.6546,N,11714.6581,E,1,6,1.253,166.825,M,-3.806,M,0,0*4A
$GPRMC,235316.07,A,3152.6546,N,11714.6581,E,0.000,262.049,190414,0,W,A*30
$GPVTG,262.049,T,262.049,M,0.000,N,0.000,K,A*23
$GPGSA,A,3,15,26,21,18,29,24,,,,,,,2.059,1.253,1.634*3E
$GPGSV,3,1,9,29,10,214,50,14,3,244,16,15,59,24,42,18,40,314,28*40
$GPGSV,3,2,9,21,58,287,40,26,24,46,34,24,60,154,39,22,8,299,0*71
$GPGSV,3,3,9,5,20,101,0*77
$GPGGA,235317.07,3152.6546,N,11714.6581,E,1,6,1.253,166.825,M,-3.806,M,0,0*4B
$GPRMC,235317.07,A,3152.6546,N,11714.6581,E,0.000,262.049,190414,0,W,A*31
$GPVTG,262.049,T,262.049,M,0.000,N,0.000,K,A*23
$GPGSA,A,3,15,26,21,18,29,24,,,,,,,2.059,1.253,1.634*3E
$GPGSV,3,1,9,29,10,214,50,14,3,244,17,15,59,24,42,18,40,314,29*40
$GPGSV,3,2,9,21,58,287,40,26,24,46,34,24,60,154,40,22,8,299,0*7F
$GPGSV,3,3,9,5,20,101,0*77
$GPGGA,235318.07,3152.6546,N,11714.6581,E,1,6,1.253,166.825,M,-3.806,M,0,0*44
$GPRMC,235318.07,A,3152.6546,N,11714.6581,E,0.000,262.049,190414,0,W,A*3E
$GPVTG,262.049,T,262.049,M,0.000,N,0.000,K,A*23
$GPGSA,A,3,15,26,21,18,29,24,,,,,,,2.059,1.253,1.633*39
$GPGSV,3,1,9,29,10,214,50,14,3,244,17,15,59,24,43,18,41,314,30*48
$GPGSV,3,2,9,21,58,287,40,26,24,46,35,24,60,154,40,22,8,299,0*7E
$GPGSV,3,3,9,5,20,101,0*77
$GPGGA,235319.07,3152.6546,N,11714.6581,E,1,6,1.253,166.825,M,-3.806,M,0,0*45
$GPRMC,235319.07,A,3152.6546,N,11714.6581,E,0.000,262.049,190414,0,W,A*3F
$GPVTG,262.049,T,262.049,M,0.000,N,0.000,K,A*23
$GPGSA,A,3,15,26,21,18,29,24,,,,,,,2.058,1.253,1.633*38
$GPGSV,3,1,9,29,10,214,50,14,3,244,18,15,59,24,42,18,41,314,32*44
$GPGSV,3,2,9,21,58,287,40,22,8,299,6,24,60,154,40,26,24,46,35*78
$GPGSV,3,3,9,5,20,101,0*77
$GPGGA,235320.07,3152.6546,N,11714.6581,E,1,6,1.253,166.825,M,-3.806,M,0,0*4F
$GPRMC,235320.07,A,3152.6546,N,11714.6581,E,0.000,262.049,190414,0,W,A*35
$GPVTG,262.049,T,262.049,M,0.000,N,0.000,K,A*23
$GPGSA,A,3,15,26,21,18,29,24,,,,,,,2.058,1.253,1.633*38
$GPGSV,3,1,9,29,10,214,50,14,3,244,18,15,59,24,42,18,41,314,32*44
$GPGSV,3,2,9,21,58,287,39,22,8,299,17,24,60,154,40,26,24,46,35*46
$GPGSV,3,3,9,5,20,101,0*77
$GPGGA,235321.07,3152.6546,N,11714.6581,E,1,6,1.253,166.825,M,-3.806,M,0,0*4E
$GPRMC,235321.07,A,3152.6546,N,11714.6581,E,0.000,262.049,190414,0,W,A*34
$GPVTG,262.049,T,262.049,M,0.000,N,0.000,K,A*23
$GPGSA,A,3,15,26,21,18,29,24,,,,,,,2.058,1.253,1.633*38
$GPGSV,3,1,9,29,10,214,50,14,3,244,19,15,59,24,42,18,41,314,33*44
$GPGSV,3,2,9,21,58,287,40,26,24,46,35,24,60,154,40,22,8,299,0*7E
$GPGSV,3,3,9,5,20,101,0*77
$GPGGA,235322.07,3152.6546,N,11714.6581,E,1,6,1.253,166.825,M,-3.806,M,0,0*4D
$GPRMC,235322.07,A,3152.6546,N,11714.6581,E,0.000,262.049,190414,0,W,A*37
$GPVTG,262.049,T,262.049,M,0.000,N,0.000,K,A*23
$GPGSA,A,3,15,26,21,18,29,24,,,,,,,2.058,1.253,1.632*39
$GPGSV,3,1,9,29,10,214,50,14,3,244,18,15,59,24,42,18,41,314,34*42
$GPGSV,3,2,9,21,58,287,40,26,24,46,35,24,60,154,39,22,8,299,0*70
$GPGSV,3,3,9,5,20,101,0*77
$GPGGA,235323.07,3152.6546,N,11714.6581,E,1,6,1.253,166.825,M,-3.806,M,0,0*4C
$GPRMC,235323.07,A,3152.6546,N,11714.6581,E,0.000,262.049,190414,0,W,A*36
$GPVTG,262.049,T,262.049,M,0.000,N,0.000,K,A*23
$GPGSA,A,3,15,26,21,18,29,24,,,,,,,2.058,1.253,1.632*39
$GPGSV,3,1,9,29,10,214,50,14,3,244,19,15,59,24,42,18,41,314,34*43
$GPGSV,3,2,9,21,58,287,40,26,24,46,34,24,60,154,39,22,8,299,0*71
$GPGSV,3,3,9,5,20,101,0*77
$GPGGA,235324.07,3152.6546,N,11714.6581,E,1,6,1.254,166.825,M,-3.806,M,0,0*4C
$GPRMC,235324.07,A,3152.6546,N,11714.6581,E,0.000,262.049,190414,0,W,A*31
$GPVTG,262.049,T,262.049,M,0.000,N,0.000,K,A*23
$GPGSA,A,3,15,26,21,18,29,24,,,,,,,2.058,1.254,1.632*3E
$GPGSV,3,1,9,29,10,214,49,14,3,244,20,15,59,24,42,18,41,314,34*41
$GPGSV,3,2,9,21,58,287,40,26,24,46,34,24,60,154,39,22,8,299,0*71
$GPGSV,3,3,9,5,20,101,0*77
$GPGGA,235325.07,3152.6546,N,11714.6581,E,1,6,1.254,166.825,M,-3.806,M,0,0*4D
$GPRMC,235325.07,A,3152.6546,N,11714.6581,E,0.000,262.049,190414,0,W,A*30
$GPVTG,262.049,T,262.049,M,0.000,N,0.000,K,A*23
$GPGSA,A,3,15,26,21,18,29,24,,,,,,,2.057,1.254,1.631*32
$GPGSV,3,1,9,29,10,214,50,14,3,244,21,15,59,24,42,18,41,314,34*48
$GPGSV,3,2,9,21,58,287,40,26,24,46,33,24,60,154,39,22,8,299,0*76
$GPGSV,3,3,9,5,20,101,0*77
$GPGGA,235326.07,3152.6546,N,11714.6581,E,1,6,1.254,166.825,M,-3.806,M,0,0*4E
$GPRMC,235326.07,A,3152.6546,N,11714.6581,E,0.000,262.049,190414,0,W,A*33
$GPVTG,262.049,T,262.049,M,0.000,N,0.000,K,A*23
$GPGSA,A,3,15,26,21,18,29,24,,,,,,,2.057,1.254,1.631*32
$GPGSV,3,1,9,29,10,214,50,14,3,244,22,15,59,24,42,18,41,314,34*4B
$GPGSV,3,2,9,21,58,287,40,26,24,46,33,24,60,154,39,22,8,299,0*76
$GPGSV,3,3,9,5,20,101,0*77
$GPGGA,235327.07,3152.6546,N,11714.6581,E,1,6,1.254,166.825,M,-3.806,M,0,0*4F
$GPRMC,235327.07,A,3152.6546,N,11714.6581,E,0.000,262.049,190414,0,W,A*32
$GPVTG,262.049,T,262.049,M,0.000,N,0.000,K,A*23
$GPGSA,A,3,15,26,21,18,29,24,,,,,,,2.057,1.254,1.631*32
$GPGSV,3,1,9,29,10,214,51,14,3,244,23,15,59,24,42,18,41,314,33*4C
$GPGSV,3,2,9,21,58,287,40,26,24,46,33,24,60,154,39,22,8,299,0*76
$GPGSV,3,3,9,5,20,101,0*77
$GPGGA,235328.07,3152.6546,N,11714.6581,E,1,6,1.254,166.825,M,-3.806,M,0,0*40
$GPRMC,235328.07,A,3152.6546,N,11714.6581,E,0.000,262.049,190414,0,W,A*3D
$GPVTG,262.049,T,262.049,M,0.000,N,0.000,K,A*23
$GPGSA,A,3,15,26,21,18,29,24,,,,,,,2.057,1.254,1.631*32
$GPGSV,3,1,9,29,10,214,51,14,3,244,25,15,59,24,41,18,41,314,33*49
$GPGSV,3,2,9,21,58,287,40,26,24,46,32,24,60,154,39,22,8,299,0*77
$GPGSV,3,3,9,5,20,101,0*77
$GPGGA,235329.07,3152.6546,N,11714.6581,E,1,6,1.254,166.825,M,-3.806,M,0,0*41
$GPRMC,235329.07,A,3152.6546,N,11714.6581,E,0.000,262.049,190414,0,W,A*3C
$GPVTG,262.049,T,262.049,M,0.000,N,0.000,K,A*23
$GPGSA,A,3,15,26,21,18,29,24,,,,,,,2.057,1.254,1.630*33
$GPGSV,3,1,9,29,10,214,51,14,4,244,26,15,59,24,41,18,41,314,33*4D
$GPGSV,3,2,9,21,58,287,40,26,24,46,32,24,60,154,39,22,8,299,0*77
$GPGSV,3,3,9,5,20,101,0*77
$GPGGA,235330.07,3152.6546,N,11714.6581,E,1,6,1.254,166.825,M,-3.806,M,0,0*49
$GPRMC,235330.07,A,3152.6546,N,11714.6581,E,0.000,262.049,190414,0,W,A*34
$GPVTG,262.049,T,262.049,M,0.000,N,0.000,K,A*23
$GPGSA,A,3,15,26,21,18,29,24,,,,,,,2.056,1.254,1.630*32
$GPGSV,3,1,9,29,10,214,52,14,4,244,27,15,59,24,41,18,41,314,33*4F
$GPGSV,3,2,9,21,58,287,40,26,23,46,31,24,60,154,39,22,8,299,0*73
$GPGSV,3,3,9,5,20,101,0*77
$GPGGA,235331.07,3152.6546,N,11714.6581,E,1,6,1.254,166.825,M,-3.806,M,0,0*48
$GPRMC,235331.07,A,3152.6546,N,11714.6581,E,0.000,262.049,190414,0,W,A*35
$GPVTG,262.049,T,262.049,M,0.000,N,0.000,K,A*23
$GPGSA,A,3,15,26,21,18,29,24,,,,,,,2.056,1.254,1.630*32
$GPGSV,3,1,9,29,10,214,52,14,4,244,28,15,59,24,41,18,41,314,34*47
$GPGSV,3,2,9,21,58,287,40,22,8,299,2,24,60,154,40,26,23,46,30*7E
$GPGSV,3,3,9,5,20,101,0*77
$GPGGA,235332.07,3152.6546,N,11714.6581,E,1,6,1.254,166.825,M,-3.806,M,0,0*4B
$GPRMC,235332.07,A,3152.6546,N,11714.6581,E,0.000,262.049,190414,0,W,A*36
$GPVTG,262.049,T,262.049,M,0.000,N,0.000,K,A*23
$GPGSA,A,3,15,26,21,18,29,24,,,,,,,2.056,1.254,1.629*3A
$GPGSV,3,1,9,29,10,214,51,14,4,244,28,15,59,24,42,18,41,314,33*40
$GPGSV,3,2,9,21,58,287,40,22,8,299,6,24,60,154,40,26,23,46,30*7A
$GPGSV,3,3,9,5,20,101,0*77
$GPGGA,235333.07,3152.6546,N,11714.6581,E,1,6,1.254,166.825,M,-3.806,M,0,0*4A
$GPRMC,235333.07,A,3152.6546,N,11714.6581,E,0.000,262.049,190414,0,W,A*37
$GPVTG,262.049,T,262.049,M,0.000,N,0.000,K,A*23
$GPGSA,A,3,15,26,21,18,29,24,,,,,,,2.056,1.254,1.629*3A
$GPGSV,3,1,9,29,10,214,51,14,4,244,29,15,59,24,42,18,41,314,33*41
$GPGSV,3,2,9,21,58,287,40,22,8,299,17,24,60,154,40,26,23,47,29*43
$GPGSV,3,3,9,5,20,101,0*77
$GPGGA,235334.07,3152.6546,N,11714.6581,E,1,6,1.254,166.825,M,-3.806,M,0,0*4D
$GPRMC,235334.07,A,3152.6546,N,11714.6581,E,0.000,262.049,190414,0,W,A*30
$GPVTG,262.049,T,262.049,M,0.000,N,0.000,K,A*23
$GPGSA,A,3,15,26,21,18,29,24,,,,,,,2.056,1.254,1.629*3A
$GPGSV,3,1,9,29,10,214,52,14,4,244,30,15,59,24,42,18,41,314,32*4B
$GPGSV,3,2,9,21,58,287,41,22,8,299,17,24,60,154,40,26,23,47,28*43
$GPGSV,3,3,9,5,20,101,0*77
$GPGGA,235335.07,3152.6544,N,11714.6583,E,1,6,1.254,166.378,M,-3.806,M,0,0*4F
$GPRMC,235335.07,A,3152.6544,N,11714.6583,E,0.755,262.049,190414,0,W,A*36
$GPVTG,262.049,T,262.049,M,0.755,N,1.398,K,A*27
$GPGSA,A,3,15,26,21,18,29,24,,,,,,,2.056,1.254,1.629*3A
$GPGSV,3,1,9,29,10,214,51,14,4,244,29,15,59,24,41,18,41,314,31*40
$GPGSV,3,2,9,21,58,287,40,26,23,47,28,24,60,154,40,22,8,299,0*74
$GPGSV,3,3,9,5,20,101,0*77
$GPGGA,235336.07,3152.6544,N,11714.6583,E,1,6,1.254,166.378,M,-3.806,M,0,0*4C
$GPRMC,235336.07,A,3152.6544,N,11714.6583,E,0.000,262.049,190414,0,W,A*32
$GPVTG,262.049,T,262.049,M,0.000,N,0.000,K,A*23
$GPGSA,A,3,15,26,21,24,18,29,,,,,,,2.055,1.254,1.628*38
$GPGSV,3,1,9,29,10,214,51,14,4,244,29,15,59,24,41,18,41,314,29*49
$GPGSV,3,2,9,21,58,287,41,26,23,47,28,24,60,154,40,22,8,299,0*75
$GPGSV,3,3,9,5,20,101,0*77
$GPGGA,235337.07,3152.6544,N,11714.6584,E,1,6,1.254,165.447,M,-3.806,M,0,0*42
$GPRMC,235337.07,A,3152.6544,N,11714.6584,E,0.307,262.049,190414,0,W,A*30
$GPVTG,262.049,T,262.049,M,0.307,N,0.568,K,A*2C
$GPGSA,A,3,15,26,21,24,18,29,,,,,,,2.055,1.254,1.628*38
$GPGSV,3,1,9,29,10,214,51,14,4,244,27,15,59,24,41,18,41,314,28*46
$GPGSV,3,2,9,21,58,287,41,26,23,47,28,24,60,154,39,22,8,299,0*7B
$GPGSV,3,3,9,5,20,101,0*77
$GPGGA,235338.07,3152.6544,N,11714.6584,E,1,6,1.254,165.447,M,-3.806,M,0,0*4D
$GPRMC,235338.07,A,3152.6544,N,11714.6584,E,0.000,262.049,190414,0,W,A*3B
$GPVTG,262.049,T,262.049,M,0.000,N,0.000,K,A*23
$GPGSA,A,3,15,26,21,24,18,29,,,,,,,2.055,1.254,1.628*38
$GPGSV,3,1,9,29,10,214,51,14,4,244,27,15,59,24,41,18,41,314,25*4B
$GPGSV,3,2,9,21,58,287,41,26,23,47,28,24,60,154,39,22,8,299,0*7B
$GPGSV,3,3,9,5,20,101,0*77
$GPGGA,235339.07,3152.6544,N,11714.6584,E,1,6,1.255,165.447,M,-3.806,M,0,0*4D
$GPRMC,235339.07,A,3152.6544,N,11714.6584,E,0.000,262.049,190414,0,W,A*3A
$GPVTG,262.049,T,262.049,M,0.000,N,0.000,K,A*23
$GPGSA,A,3,15,26,21,24,18,29,,,,,,,2.055,1.255,1.627*36
$GPGSV,3,1,9,29,10,214,51,14,4,244,28,15,59,24,42,18,41,314,26*44
$GPGSV,3,2,9,21,58,287,41,26,23,47,28,24,60,154,39,22,8,299,0*7B
$GPGSV,3,3,9,5,20,101,0*77
$GPGGA,235340.07,3152.6544,N,11714.6584,E,1,6,1.255,165.447,M,-3.806,M,0,0*43
$GPRMC,235340.07,A,3152.6544,N,11714.6584,E,0.000,262.049,190414,0,W,A*34
$GPVTG,262.049,T,262.049,M,0.000,N,0.000,K,A*23
$GPGSA,A,3,15,26,21,24,18,29,,,,,,,2.055,1.255,1.627*36
$GPGSV,3,1,9,29,10,214,50,14,4,244,28,15,59,24,42,18,41,314,28*4B
$GPGSV,3,2,9,21,58,287,41,26,23,47,28,24,60,154,39,22,8,299,0*7B
$GPGSV,3,3,9,5,20,101,0*77
$GPGGA,235341.07,3152.6544,N,11714.6584,E,1,6,1.255,165.447,M,-3.806,M,0,0*42
$GPRMC,235341.07,A,3152.6544,N,11714.6584,E,0.000,262.049,190414,0,W,A*35
$GPVTG,262.049,T,262.049,M,0.000,N,0.000,K,A*23
$GPGSA,A,3,15,26,21,24,18,29,,,,,,,2.055,1.255,1.627*36
$GPGSV,3,1,9,29,10,214,50,14,4,244,28,15,59,24,42,18,41,314,28*4B
$GPGSV,3,2,9,21,58,287,41,26,23,47,27,24,60,154,39,22,8,299,0*74
$GPGSV,3,3,9,5,20,101,0*77
$GPGGA,235342.07,3152.6544,N,11714.6584,E,1,6,1.255,165.447,M,-3.806,M,0,0*41
$GPRMC,235342.07,A,3152.6544,N,11714.6584,E,0.000,262.049,190414,0,W,A*36
$GPVTG,262.049,T,262.049,M,0.000,N,0.000,K,A*23
$GPGSA,A,3,15,26,21,24,18,29,,,,,,,2.054,1.255,1.627*37
$GPGSV,3,1,9,29,10,214,50,14,4,244,27,15,59,24,42,18,41,314,27*4B
$GPGSV,3,2,9,21,58,287,41,26,23,47,26,24,60,154,41,22,8,299,0*7A
$GPGSV,3,3,9,5,20,101,0*77
$GPGGA,235343.07,3152.6544,N,11714.6584,E,1,6,1.255,165.447,M,-3.806,M,0,0*40
$GPRMC,235343.07,A,3152.6544,N,11714.6584,E,0.000,262.049,190414,0,W,A*37
$GPVTG,262.049,T,262.049,M,0.000,N,0.000,K,A*23
$GPGSA,A,3,15,26,21,24,18,29,,,,,,,2.054,1.255,1.626*36
$GPGSV,3,1,9,29,10,214,50,14,4,244,27,15,59,24,41,18,41,314,27*48
$GPGSV,3,2,9,21,58,287,41,26,23,47,25,24,60,154,41,22,8,299,0*79
$GPGSV,3,3,9,5,20,101,0*77
$GPGGA,235344.07,3152.6544,N,11714.6584,E,1,6,1.255,165.447,M,-3.806,M,0,0*47
$GPRMC,235344.07,A,3152.6544,N,11714.6584,E,0.000,262.049,190414,0,W,A*30
$GPVTG,262.049,T,262.049,M,0.000,N,0.000,K,A*23
$GPGSA,A,3,15,26,21,24,18,29,,,,,,,2.054,1.255,1.626*36
$GPGSV,3,1,9,29,10,214,50,14,4,244,25,15,59,24,41,18,41,314,27*4A
$GPGSV,3,2,9,21,58,287,41,22,8,299,6,24,60,154,41,26,23,47,23*79
$GPGSV,3,3,9,5,20,101,0*77
$GPGGA,235345.07,3152.6544,N,11714.6584,E,1,6,1.255,165.447,M,-3.806,M,0,0*46
$GPRMC,235345.07,A,3152.6544,N,11714.6584,E,0.000,262.049,190414,0,W,A*31
$GPVTG,262.049,T,262.049,M,0.000,N,0.000,K,A*23
$GPGSA,A,3,15,26,21,24,18,29,,,,,,,2.054,1.255,1.626*36
$GPGSV,3,1,9,29,10,214,50,14,4,244,23,15,59,24,40,18,41,314,27*4D
$GPGSV,3,2,9,21,58,287,41,22,8,299,13,24,60,154,41,26,23,47,27*49
$GPGSV,3,3,9,5,20,101,0*77
$GPGGA,235346.07,3152.6544,N,11714.6584,E,1,6,1.255,165.447,M,-3.806,M,0,0*45
$GPRMC,235346.07,A,3152.6544,N,11714.6584,E,0.000,262.049,190414,0,W,A*32
$GPVTG,262.049,T,262.049,M,0.000,N,0.000,K,A*23
$GPGSA,A,3,15,26,21,24,18,29,,,,,,,2.054,1.255,1.625*35
$GPGSV,3,1,9,29,10,214,50,14,4,244,25,15,59,24,40,18,41,314,27*4B
$GPGSV,3,2,9,21,58,287,41,22,8,299,16,24,60,154,41,26,23,47,28*43
$GPGSV,3,3,9,5,20,101,0*77
$GPGGA,235347.07,3152.6544,N,11714.6584,E,1,6,1.255,165.447,M,-3.806,M,0,0*44
$GPRMC,235347.07,A,3152.6544,N,11714.6584,E,0.000,262.049,190414,0,W,A*33
$GPVTG,262.049,T,262.049,M,0.000,N,0.000,K,A*23
$GPGSA,A,3,15,26,21,24,18,29,,,,,,,2.053,1.255,1.625*32
$GPGSV,3,1,9,29,10,214,50,14,4,244,26,15,59,25,41,18,41,314,28*47
$GPGSV,3,2,9,21,58,287,40,26,23,47,28,24,60,154,41,22,8,299,0*75
$GPGSV,3,3,9,5,20,101,0*77
$GPGGA,235348.07,3152.6544,N,11714.6584,E,1,6,1.255,165.447,M,-3.806,M,0,0*4B
$GPRMC,235348.07,A,3152.6544,N,11714.6584,E,0.000,262.049,190414,0,W,A*3C
$GPVTG,262.049,T,262.049,M,0.000,N,0.000,K,A*23
$GPGSA,A,3,15,26,21,24,18,29,,,,,,,2.053,1.255,1.625*32
$GPGSV,3,1,9,29,10,214,50,14,4,244,28,15,59,25,41,18,41,314,31*41
$GPGSV,3,2,9,21,58,287,40,26,23,47,28,24,60,154,41,22,8,299,0*75
$GPGSV,3,3,9,5,20,101,0*77
$GPGGA,235349.07,3152.6544,N,11714.6584,E,1,6,1.255,165.447,M,-3.806,M,0,0*4A
$GPRMC,235349.07,A,3152.6544,N,11714.6584,E,0.000,262.049,190414,0,W,A*3D
$GPVTG,262.049,T,262.049,M,0.000,N,0.000,K,A*23
$GPGSA,A,3,15,26,21,24,18,29,,,,,,,2.053,1.255,1.625*32
$GPGSV,3,1,9,29,10,214,50,14,4,244,28,15,59,25,41,18,41,314,32*42
$GPGSV,3,2,9,21,58,287,40,26,23,47,28,24,60,154,41,22,8,299,0*75
$GPGSV,3,3,9,5,20,101,0*77
$GPGGA,235350.07,3152.6544,N,11714.6584,E,1,6,1.255,165.447,M,-3.806,M,0,0*42
$GPRMC,235350.07,A,3152.6544,N,11714.6584,E,0.000,262.049,190414,0,W,A*35
$GPVTG,262.049,T,262.049,M,0.000,N,0.000,K,A*23
$GPGSA,A,3,15,26,21,24,18,29,,,,,,,2.053,1.255,1.624*33
$GPGSV,3,1,9,29,10,213,50,14,4,244,29,15,59,25,42,18,41,314,33*46
$GPGSV,3,2,9,21,58,287,40,26,23,47,28,24,60,154,41,22,8,299,0*75
$GPGSV,3,3,9,5,20,101,0*77
$GPGGA,235351.07,3152.6544,N,11714.6584,E,1,6,1.255,165.447,M,-3.806,M,0,0*43
$GPRMC,235351.07,A,3152.6544,N,11714.6584,E,0.000,262.049,190414,0,W,A*34
$GPVTG,262.049,T,262.049,M,0.000,N,0.000,K,A*23
$GPGSA,A,3,15,26,21,24,18,29,,,,,,,2.053,1.255,1.624*33
$GPGSV,3,1,9,29,10,213,49,14,4,244,28,15,59,25,41,18,41,314,35*4A
$GPGSV,3,2,9,21,58,287,40,26,23,47,28,24,60,154,40,22,8,299,0*74
$GPGSV,3,3,9,5,20,101,0*77
$GPGGA,235352.07,3152.6544,N,11714.6584,E,1,6,1.255,165.447,M,-3.806,M,0,0*40
$GPRMC,235352.07,A,3152.6544,N,11714.6584,E,0.000,262.049,190414,0,W,A*37
$GPVTG,262.049,T,262.049,M,0.000,N,0.000,K,A*23
$GPGSA,A,3,15,26,21,24,18,29,,,,,,,2.053,1.255,1.624*33
$GPGSV,3,1,9,29,10,213,49,14,4,244,27,15,59,25,41,18,41,314,35*45
$GPGSV,3,2,9,21,58,287,40,26,23,47,29,24,60,154,40,22,8,299,0*75
$GPGSV,3,3,9,5,20,101,0*77
